[
  {
    "name": "les Escaldes",
    "location": {
      "type": "Point",
      "coordinates": [
        1.53414,
        42.50729
      ]
    }
  },
  {
    "name": "Andorra la Vella",
    "location": {
      "type": "Point",
      "coordinates": [
        1.52109,
        42.50779
      ]
    }
  },
  {
    "name": "Umm al Qaywayn",
    "location": {
      "type": "Point",
      "coordinates": [
        55.55517,
        25.56473
      ]
    }
  },
  {
    "name": "Ras al-Khaimah",
    "location": {
      "type": "Point",
      "coordinates": [
        55.9432,
        25.78953
      ]
    }
  },
  {
    "name": "Khawr Fakkān",
    "location": {
      "type": "Point",
      "coordinates": [
        56.34199,
        25.33132
      ]
    }
  },
  {
    "name": "Dubai",
    "location": {
      "type": "Point",
      "coordinates": [
        55.17128,
        25.0657
      ]
    }
  },
  {
    "name": "Dibba Al-Fujairah",
    "location": {
      "type": "Point",
      "coordinates": [
        56.26176,
        25.59246
      ]
    }
  },
  {
    "name": "Dibba Al-Hisn",
    "location": {
      "type": "Point",
      "coordinates": [
        56.27291,
        25.61955
      ]
    }
  },
  {
    "name": "Sharjah",
    "location": {
      "type": "Point",
      "coordinates": [
        55.41206,
        25.33737
      ]
    }
  },
  {
    "name": "Ar Ruways",
    "location": {
      "type": "Point",
      "coordinates": [
        52.73056,
        24.11028
      ]
    }
  },
  {
    "name": "Al Fujayrah",
    "location": {
      "type": "Point",
      "coordinates": [
        56.34141,
        25.11641
      ]
    }
  },
  {
    "name": "Al Ain",
    "location": {
      "type": "Point",
      "coordinates": [
        55.76056,
        24.19167
      ]
    }
  },
  {
    "name": "Ajman",
    "location": {
      "type": "Point",
      "coordinates": [
        55.43504,
        25.41111
      ]
    }
  },
  {
    "name": "Adh Dhayd",
    "location": {
      "type": "Point",
      "coordinates": [
        55.88157,
        25.28812
      ]
    }
  },
  {
    "name": "Abu Dhabi",
    "location": {
      "type": "Point",
      "coordinates": [
        54.36667,
        24.46667
      ]
    }
  },
  {
    "name": "Zaranj",
    "location": {
      "type": "Point",
      "coordinates": [
        61.86037,
        30.95962
      ]
    }
  },
  {
    "name": "Taloqan",
    "location": {
      "type": "Point",
      "coordinates": [
        69.53451,
        36.73605
      ]
    }
  },
  {
    "name": "Shīnḏanḏ",
    "location": {
      "type": "Point",
      "coordinates": [
        62.1474,
        33.30294
      ]
    }
  },
  {
    "name": "Shibirghān",
    "location": {
      "type": "Point",
      "coordinates": [
        65.7529,
        36.66757
      ]
    }
  },
  {
    "name": "Shahrak",
    "location": {
      "type": "Point",
      "coordinates": [
        64.3052,
        34.10737
      ]
    }
  },
  {
    "name": "Sar-e Pul",
    "location": {
      "type": "Point",
      "coordinates": [
        65.93249,
        36.21544
      ]
    }
  },
  {
    "name": "Sang-e Chārak",
    "location": {
      "type": "Point",
      "coordinates": [
        66.43694,
        35.84972
      ]
    }
  },
  {
    "name": "Aībak",
    "location": {
      "type": "Point",
      "coordinates": [
        68.01551,
        36.26468
      ]
    }
  },
  {
    "name": "Rustāq",
    "location": {
      "type": "Point",
      "coordinates": [
        69.83045,
        37.12604
      ]
    }
  },
  {
    "name": "Qarqīn",
    "location": {
      "type": "Point",
      "coordinates": [
        66.04358,
        37.41853
      ]
    }
  },
  {
    "name": "Qarāwul",
    "location": {
      "type": "Point",
      "coordinates": [
        68.7802,
        37.21959
      ]
    }
  },
  {
    "name": "Pul-e Khumrī",
    "location": {
      "type": "Point",
      "coordinates": [
        68.71512,
        35.94458
      ]
    }
  },
  {
    "name": "Paghmān",
    "location": {
      "type": "Point",
      "coordinates": [
        68.95091,
        34.58787
      ]
    }
  },
  {
    "name": "Nahrīn",
    "location": {
      "type": "Point",
      "coordinates": [
        69.13343,
        36.0649
      ]
    }
  },
  {
    "name": "Maymana",
    "location": {
      "type": "Point",
      "coordinates": [
        64.78361,
        35.92139
      ]
    }
  },
  {
    "name": "Mehtar Lām",
    "location": {
      "type": "Point",
      "coordinates": [
        70.20944,
        34.67139
      ]
    }
  },
  {
    "name": "Mazār-e Sharīf",
    "location": {
      "type": "Point",
      "coordinates": [
        67.11087,
        36.70904
      ]
    }
  },
  {
    "name": "Lashkar Gāh",
    "location": {
      "type": "Point",
      "coordinates": [
        64.37161,
        31.59382
      ]
    }
  },
  {
    "name": "Kushk",
    "location": {
      "type": "Point",
      "coordinates": [
        61.95221,
        33.29565
      ]
    }
  },
  {
    "name": "Kunduz",
    "location": {
      "type": "Point",
      "coordinates": [
        68.857,
        36.72895
      ]
    }
  },
  {
    "name": "Khōst",
    "location": {
      "type": "Point",
      "coordinates": [
        69.92041,
        33.33951
      ]
    }
  },
  {
    "name": "Khulm",
    "location": {
      "type": "Point",
      "coordinates": [
        67.69826,
        36.69736
      ]
    }
  },
  {
    "name": "Khāsh",
    "location": {
      "type": "Point",
      "coordinates": [
        62.79055,
        31.52919
      ]
    }
  },
  {
    "name": "Khanabad",
    "location": {
      "type": "Point",
      "coordinates": [
        69.11556,
        36.6825
      ]
    }
  },
  {
    "name": "Karukh",
    "location": {
      "type": "Point",
      "coordinates": [
        62.5863,
        34.48108
      ]
    }
  },
  {
    "name": "Kandahār",
    "location": {
      "type": "Point",
      "coordinates": [
        65.71013,
        31.61332
      ]
    }
  },
  {
    "name": "Kabul",
    "location": {
      "type": "Point",
      "coordinates": [
        69.17233,
        34.52813
      ]
    }
  },
  {
    "name": "Jalālābād",
    "location": {
      "type": "Point",
      "coordinates": [
        70.45153,
        34.42647
      ]
    }
  },
  {
    "name": "Jabal os Saraj",
    "location": {
      "type": "Point",
      "coordinates": [
        69.23778,
        35.11833
      ]
    }
  },
  {
    "name": "Herāt",
    "location": {
      "type": "Point",
      "coordinates": [
        62.19967,
        34.34817
      ]
    }
  },
  {
    "name": "Ghormach",
    "location": {
      "type": "Point",
      "coordinates": [
        63.78264,
        35.73062
      ]
    }
  },
  {
    "name": "Ghazni",
    "location": {
      "type": "Point",
      "coordinates": [
        68.42096,
        33.55391
      ]
    }
  },
  {
    "name": "Gereshk",
    "location": {
      "type": "Point",
      "coordinates": [
        64.57005,
        31.82089
      ]
    }
  },
  {
    "name": "Gardez",
    "location": {
      "type": "Point",
      "coordinates": [
        69.22592,
        33.59744
      ]
    }
  },
  {
    "name": "Fayzabad",
    "location": {
      "type": "Point",
      "coordinates": [
        70.58002,
        37.11664
      ]
    }
  },
  {
    "name": "Farah",
    "location": {
      "type": "Point",
      "coordinates": [
        62.11638,
        32.37451
      ]
    }
  },
  {
    "name": "Kafir Qala",
    "location": {
      "type": "Point",
      "coordinates": [
        61.06667,
        34.66667
      ]
    }
  },
  {
    "name": "Charikar",
    "location": {
      "type": "Point",
      "coordinates": [
        69.17139,
        35.01361
      ]
    }
  },
  {
    "name": "Baraki Barak",
    "location": {
      "type": "Point",
      "coordinates": [
        68.9492,
        33.96744
      ]
    }
  },
  {
    "name": "Bāmyān",
    "location": {
      "type": "Point",
      "coordinates": [
        67.82734,
        34.82156
      ]
    }
  },
  {
    "name": "Balkh",
    "location": {
      "type": "Point",
      "coordinates": [
        66.8972,
        36.75635
      ]
    }
  },
  {
    "name": "Baghlān",
    "location": {
      "type": "Point",
      "coordinates": [
        68.70829,
        36.13068
      ]
    }
  },
  {
    "name": "Ārt Khwājah",
    "location": {
      "type": "Point",
      "coordinates": [
        69.47958,
        37.08571
      ]
    }
  },
  {
    "name": "Āsmār",
    "location": {
      "type": "Point",
      "coordinates": [
        71.35809,
        35.03333
      ]
    }
  },
  {
    "name": "Asadābād",
    "location": {
      "type": "Point",
      "coordinates": [
        71.14697,
        34.87311
      ]
    }
  },
  {
    "name": "Andkhōy",
    "location": {
      "type": "Point",
      "coordinates": [
        65.12376,
        36.95293
      ]
    }
  },
  {
    "name": "Bāzārak",
    "location": {
      "type": "Point",
      "coordinates": [
        69.51519,
        35.31292
      ]
    }
  },
  {
    "name": "Markaz-e Woluswalī-ye Āchīn",
    "location": {
      "type": "Point",
      "coordinates": [
        70.70778,
        34.12583
      ]
    }
  },
  {
    "name": "Saint John’s",
    "location": {
      "type": "Point",
      "coordinates": [
        -61.84573,
        17.11717
      ]
    }
  },
  {
    "name": "The Valley",
    "location": {
      "type": "Point",
      "coordinates": [
        -63.05783,
        18.21704
      ]
    }
  },
  {
    "name": "Sarandë",
    "location": {
      "type": "Point",
      "coordinates": [
        20.00528,
        39.87556
      ]
    }
  },
  {
    "name": "Kukës",
    "location": {
      "type": "Point",
      "coordinates": [
        20.42194,
        42.07694
      ]
    }
  },
  {
    "name": "Korçë",
    "location": {
      "type": "Point",
      "coordinates": [
        20.78083,
        40.61861
      ]
    }
  },
  {
    "name": "Gjirokastër",
    "location": {
      "type": "Point",
      "coordinates": [
        20.13889,
        40.07583
      ]
    }
  },
  {
    "name": "Elbasan",
    "location": {
      "type": "Point",
      "coordinates": [
        20.08222,
        41.1125
      ]
    }
  },
  {
    "name": "Burrel",
    "location": {
      "type": "Point",
      "coordinates": [
        20.00889,
        41.61028
      ]
    }
  },
  {
    "name": "Vlorë",
    "location": {
      "type": "Point",
      "coordinates": [
        19.48972,
        40.46667
      ]
    }
  },
  {
    "name": "Tirana",
    "location": {
      "type": "Point",
      "coordinates": [
        19.81889,
        41.3275
      ]
    }
  },
  {
    "name": "Shkodër",
    "location": {
      "type": "Point",
      "coordinates": [
        19.51258,
        42.06828
      ]
    }
  },
  {
    "name": "Patos Fshat",
    "location": {
      "type": "Point",
      "coordinates": [
        19.65083,
        40.64278
      ]
    }
  },
  {
    "name": "Lushnjë",
    "location": {
      "type": "Point",
      "coordinates": [
        19.705,
        40.94194
      ]
    }
  },
  {
    "name": "Lezhë",
    "location": {
      "type": "Point",
      "coordinates": [
        19.64361,
        41.78361
      ]
    }
  },
  {
    "name": "Laç",
    "location": {
      "type": "Point",
      "coordinates": [
        19.71306,
        41.63556
      ]
    }
  },
  {
    "name": "Kuçovë",
    "location": {
      "type": "Point",
      "coordinates": [
        19.91667,
        40.80028
      ]
    }
  },
  {
    "name": "Krujë",
    "location": {
      "type": "Point",
      "coordinates": [
        19.79278,
        41.50917
      ]
    }
  },
  {
    "name": "Kavajë",
    "location": {
      "type": "Point",
      "coordinates": [
        19.55694,
        41.18556
      ]
    }
  },
  {
    "name": "Fier-Çifçi",
    "location": {
      "type": "Point",
      "coordinates": [
        19.56667,
        40.71667
      ]
    }
  },
  {
    "name": "Fier",
    "location": {
      "type": "Point",
      "coordinates": [
        19.55611,
        40.72389
      ]
    }
  },
  {
    "name": "Durrës",
    "location": {
      "type": "Point",
      "coordinates": [
        19.44139,
        41.32306
      ]
    }
  },
  {
    "name": "Berat",
    "location": {
      "type": "Point",
      "coordinates": [
        19.95222,
        40.70583
      ]
    }
  },
  {
    "name": "Kapan",
    "location": {
      "type": "Point",
      "coordinates": [
        46.40576,
        39.20755
      ]
    }
  },
  {
    "name": "Goris",
    "location": {
      "type": "Point",
      "coordinates": [
        46.34168,
        39.51111
      ]
    }
  },
  {
    "name": "Hats’avan",
    "location": {
      "type": "Point",
      "coordinates": [
        45.97047,
        39.46405
      ]
    }
  },
  {
    "name": "Artashat",
    "location": {
      "type": "Point",
      "coordinates": [
        44.54447,
        39.96144
      ]
    }
  },
  {
    "name": "Ararat",
    "location": {
      "type": "Point",
      "coordinates": [
        44.70569,
        39.83069
      ]
    }
  },
  {
    "name": "Yerevan",
    "location": {
      "type": "Point",
      "coordinates": [
        44.51361,
        40.18111
      ]
    }
  },
  {
    "name": "Ejmiatsin",
    "location": {
      "type": "Point",
      "coordinates": [
        44.29462,
        40.16557
      ]
    }
  },
  {
    "name": "Step’anavan",
    "location": {
      "type": "Point",
      "coordinates": [
        44.38531,
        41.00995
      ]
    }
  },
  {
    "name": "Spitak",
    "location": {
      "type": "Point",
      "coordinates": [
        44.26731,
        40.83221
      ]
    }
  },
  {
    "name": "Sevan",
    "location": {
      "type": "Point",
      "coordinates": [
        44.94171,
        40.5473
      ]
    }
  },
  {
    "name": "Masis",
    "location": {
      "type": "Point",
      "coordinates": [
        44.41618,
        40.06542
      ]
    }
  },
  {
    "name": "Vanadzor",
    "location": {
      "type": "Point",
      "coordinates": [
        44.4939,
        40.80456
      ]
    }
  },
  {
    "name": "Gavarr",
    "location": {
      "type": "Point",
      "coordinates": [
        45.12386,
        40.35398
      ]
    }
  },
  {
    "name": "Hrazdan",
    "location": {
      "type": "Point",
      "coordinates": [
        44.7662,
        40.49748
      ]
    }
  },
  {
    "name": "Armavir",
    "location": {
      "type": "Point",
      "coordinates": [
        44.03815,
        40.15446
      ]
    }
  },
  {
    "name": "Gyumri",
    "location": {
      "type": "Point",
      "coordinates": [
        43.84528,
        40.7942
      ]
    }
  },
  {
    "name": "Ashtarak",
    "location": {
      "type": "Point",
      "coordinates": [
        44.36204,
        40.2991
      ]
    }
  },
  {
    "name": "Abovyan",
    "location": {
      "type": "Point",
      "coordinates": [
        44.63348,
        40.27368
      ]
    }
  },
  {
    "name": "Saurimo",
    "location": {
      "type": "Point",
      "coordinates": [
        20.39155,
        -9.66078
      ]
    }
  },
  {
    "name": "Lucapa",
    "location": {
      "type": "Point",
      "coordinates": [
        20.74466,
        -8.41915
      ]
    }
  },
  {
    "name": "Luau",
    "location": {
      "type": "Point",
      "coordinates": [
        22.22466,
        -10.70727
      ]
    }
  },
  {
    "name": "Uíge",
    "location": {
      "type": "Point",
      "coordinates": [
        15.06131,
        -7.60874
      ]
    }
  },
  {
    "name": "Soio",
    "location": {
      "type": "Point",
      "coordinates": [
        12.36894,
        -6.1349
      ]
    }
  },
  {
    "name": "Nzeto",
    "location": {
      "type": "Point",
      "coordinates": [
        12.8666,
        -7.23116
      ]
    }
  },
  {
    "name": "N’dalatando",
    "location": {
      "type": "Point",
      "coordinates": [
        14.91162,
        -9.29782
      ]
    }
  },
  {
    "name": "Mbanza Congo",
    "location": {
      "type": "Point",
      "coordinates": [
        14.2401,
        -6.26703
      ]
    }
  },
  {
    "name": "Malanje",
    "location": {
      "type": "Point",
      "coordinates": [
        16.34096,
        -9.54015
      ]
    }
  },
  {
    "name": "Luanda",
    "location": {
      "type": "Point",
      "coordinates": [
        13.23432,
        -8.83682
      ]
    }
  },
  {
    "name": "Caxito",
    "location": {
      "type": "Point",
      "coordinates": [
        13.66425,
        -8.57848
      ]
    }
  },
  {
    "name": "Cabinda",
    "location": {
      "type": "Point",
      "coordinates": [
        12.2,
        -5.55
      ]
    }
  },
  {
    "name": "Sumbe",
    "location": {
      "type": "Point",
      "coordinates": [
        13.84371,
        -11.20605
      ]
    }
  },
  {
    "name": "Namibe",
    "location": {
      "type": "Point",
      "coordinates": [
        12.15222,
        -15.19611
      ]
    }
  },
  {
    "name": "Menongue",
    "location": {
      "type": "Point",
      "coordinates": [
        17.69099,
        -14.6585
      ]
    }
  },
  {
    "name": "Luena",
    "location": {
      "type": "Point",
      "coordinates": [
        19.91667,
        -11.78333
      ]
    }
  },
  {
    "name": "Lubango",
    "location": {
      "type": "Point",
      "coordinates": [
        13.4925,
        -14.91717
      ]
    }
  },
  {
    "name": "Longonjo",
    "location": {
      "type": "Point",
      "coordinates": [
        15.25333,
        -12.90667
      ]
    }
  },
  {
    "name": "Lobito",
    "location": {
      "type": "Point",
      "coordinates": [
        13.53601,
        -12.3644
      ]
    }
  },
  {
    "name": "Cuito",
    "location": {
      "type": "Point",
      "coordinates": [
        16.93333,
        -12.38333
      ]
    }
  },
  {
    "name": "Huambo",
    "location": {
      "type": "Point",
      "coordinates": [
        15.73917,
        -12.77611
      ]
    }
  },
  {
    "name": "Catumbela",
    "location": {
      "type": "Point",
      "coordinates": [
        13.54677,
        -12.43002
      ]
    }
  },
  {
    "name": "Catabola",
    "location": {
      "type": "Point",
      "coordinates": [
        17.28333,
        -12.15
      ]
    }
  },
  {
    "name": "Camacupa",
    "location": {
      "type": "Point",
      "coordinates": [
        17.48333,
        -12.01667
      ]
    }
  },
  {
    "name": "Caluquembe",
    "location": {
      "type": "Point",
      "coordinates": [
        14.68333,
        -13.78333
      ]
    }
  },
  {
    "name": "Caála",
    "location": {
      "type": "Point",
      "coordinates": [
        15.56056,
        -12.8525
      ]
    }
  },
  {
    "name": "Benguela",
    "location": {
      "type": "Point",
      "coordinates": [
        13.40547,
        -12.57626
      ]
    }
  },
  {
    "name": "Zárate",
    "location": {
      "type": "Point",
      "coordinates": [
        -59.02858,
        -34.09814
      ]
    }
  },
  {
    "name": "Villa Ortúzar",
    "location": {
      "type": "Point",
      "coordinates": [
        -58.46829,
        -34.57973
      ]
    }
  },
  {
    "name": "Villa Ocampo",
    "location": {
      "type": "Point",
      "coordinates": [
        -59.35515,
        -28.48752
      ]
    }
  },
  {
    "name": "Villa Lugano",
    "location": {
      "type": "Point",
      "coordinates": [
        -58.47263,
        -34.67907
      ]
    }
  },
  {
    "name": "Villaguay",
    "location": {
      "type": "Point",
      "coordinates": [
        -59.02689,
        -31.8653
      ]
    }
  },
  {
    "name": "Villa Gesell",
    "location": {
      "type": "Point",
      "coordinates": [
        -56.97304,
        -37.26394
      ]
    }
  },
  {
    "name": "Tigre",
    "location": {
      "type": "Point",
      "coordinates": [
        -58.57962,
        -34.42603
      ]
    }
  },
  {
    "name": "Tandil",
    "location": {
      "type": "Point",
      "coordinates": [
        -59.13316,
        -37.32167
      ]
    }
  },
  {
    "name": "San Vicente",
    "location": {
      "type": "Point",
      "coordinates": [
        -54.13333,
        -26.61667
      ]
    }
  },
  {
    "name": "Santo Tomé",
    "location": {
      "type": "Point",
      "coordinates": [
        -56.04077,
        -28.54939
      ]
    }
  },
  {
    "name": "Santa Elena",
    "location": {
      "type": "Point",
      "coordinates": [
        -59.78696,
        -30.94768
      ]
    }
  },
  {
    "name": "San Pedro",
    "location": {
      "type": "Point",
      "coordinates": [
        -54.10842,
        -26.62207
      ]
    }
  },
  {
    "name": "San Luis del Palmar",
    "location": {
      "type": "Point",
      "coordinates": [
        -58.55454,
        -27.5079
      ]
    }
  },
  {
    "name": "San Lorenzo",
    "location": {
      "type": "Point",
      "coordinates": [
        -58.76733,
        -28.13306
      ]
    }
  },
  {
    "name": "San Javier",
    "location": {
      "type": "Point",
      "coordinates": [
        -59.9317,
        -30.57781
      ]
    }
  },
  {
    "name": "San Isidro",
    "location": {
      "type": "Point",
      "coordinates": [
        -58.52708,
        -34.4721
      ]
    }
  },
  {
    "name": "Saladas",
    "location": {
      "type": "Point",
      "coordinates": [
        -58.62591,
        -28.25384
      ]
    }
  },
  {
    "name": "Retiro",
    "location": {
      "type": "Point",
      "coordinates": [
        -58.38333,
        -34.58333
      ]
    }
  },
  {
    "name": "Resistencia",
    "location": {
      "type": "Point",
      "coordinates": [
        -58.98389,
        -27.46056
      ]
    }
  },
  {
    "name": "Reconquista",
    "location": {
      "type": "Point",
      "coordinates": [
        -59.65,
        -29.15
      ]
    }
  },
  {
    "name": "Quilmes",
    "location": {
      "type": "Point",
      "coordinates": [
        -58.26374,
        -34.72904
      ]
    }
  },
  {
    "name": "Puerto Rico",
    "location": {
      "type": "Point",
      "coordinates": [
        -55.02402,
        -26.79598
      ]
    }
  },
  {
    "name": "Puerto Iguazú",
    "location": {
      "type": "Point",
      "coordinates": [
        -54.57355,
        -25.59912
      ]
    }
  },
  {
    "name": "Puerto Esperanza",
    "location": {
      "type": "Point",
      "coordinates": [
        -54.67306,
        -26.01517
      ]
    }
  },
  {
    "name": "Puerto Eldorado",
    "location": {
      "type": "Point",
      "coordinates": [
        -54.69463,
        -26.40843
      ]
    }
  },
  {
    "name": "Posadas",
    "location": {
      "type": "Point",
      "coordinates": [
        -55.89608,
        -27.36708
      ]
    }
  },
  {
    "name": "Pontevedra",
    "location": {
      "type": "Point",
      "coordinates": [
        -58.70072,
        -34.74785
      ]
    }
  },
  {
    "name": "Pirané",
    "location": {
      "type": "Point",
      "coordinates": [
        -59.10879,
        -25.73239
      ]
    }
  },
  {
    "name": "Paso de los Libres",
    "location": {
      "type": "Point",
      "coordinates": [
        -57.08771,
        -29.71251
      ]
    }
  },
  {
    "name": "Oberá",
    "location": {
      "type": "Point",
      "coordinates": [
        -55.11994,
        -27.48706
      ]
    }
  },
  {
    "name": "Necochea",
    "location": {
      "type": "Point",
      "coordinates": [
        -58.73961,
        -38.5545
      ]
    }
  },
  {
    "name": "Morón",
    "location": {
      "type": "Point",
      "coordinates": [
        -58.61956,
        -34.6509
      ]
    }
  },
  {
    "name": "Monte Caseros",
    "location": {
      "type": "Point",
      "coordinates": [
        -57.63626,
        -30.25359
      ]
    }
  },
  {
    "name": "Montecarlo",
    "location": {
      "type": "Point",
      "coordinates": [
        -54.757,
        -26.5662
      ]
    }
  },
  {
    "name": "Mercedes",
    "location": {
      "type": "Point",
      "coordinates": [
        -59.43068,
        -34.65145
      ]
    }
  },
  {
    "name": "Mercedes",
    "location": {
      "type": "Point",
      "coordinates": [
        -58.07519,
        -29.18416
      ]
    }
  },
  {
    "name": "Mar del Plata",
    "location": {
      "type": "Point",
      "coordinates": [
        -57.55754,
        -38.00228
      ]
    }
  },
  {
    "name": "Luján",
    "location": {
      "type": "Point",
      "coordinates": [
        -59.105,
        -34.57028
      ]
    }
  },
  {
    "name": "La Plata",
    "location": {
      "type": "Point",
      "coordinates": [
        -57.95453,
        -34.92145
      ]
    }
  },
  {
    "name": "La Paz",
    "location": {
      "type": "Point",
      "coordinates": [
        -59.64566,
        -30.74485
      ]
    }
  },
  {
    "name": "Jardín América",
    "location": {
      "type": "Point",
      "coordinates": [
        -55.22698,
        -27.04346
      ]
    }
  },
  {
    "name": "Gualeguaychú",
    "location": {
      "type": "Point",
      "coordinates": [
        -58.51722,
        -33.00937
      ]
    }
  },
  {
    "name": "Gualeguay",
    "location": {
      "type": "Point",
      "coordinates": [
        -59.30966,
        -33.14156
      ]
    }
  },
  {
    "name": "Goya",
    "location": {
      "type": "Point",
      "coordinates": [
        -59.2651,
        -29.14395
      ]
    }
  },
  {
    "name": "Gobernador Ingeniero Valentín Virasoro",
    "location": {
      "type": "Point",
      "coordinates": [
        -56.03333,
        -28.05
      ]
    }
  },
  {
    "name": "General José de San Martín",
    "location": {
      "type": "Point",
      "coordinates": [
        -59.34158,
        -26.53743
      ]
    }
  },
  {
    "name": "Garupá",
    "location": {
      "type": "Point",
      "coordinates": [
        -55.82921,
        -27.48171
      ]
    }
  },
  {
    "name": "Formosa",
    "location": {
      "type": "Point",
      "coordinates": [
        -58.17814,
        -26.17753
      ]
    }
  },
  {
    "name": "Fontana",
    "location": {
      "type": "Point",
      "coordinates": [
        -59.02392,
        -27.41813
      ]
    }
  },
  {
    "name": "Federal",
    "location": {
      "type": "Point",
      "coordinates": [
        -58.78326,
        -30.95465
      ]
    }
  },
  {
    "name": "Esquina",
    "location": {
      "type": "Point",
      "coordinates": [
        -59.52719,
        -30.01444
      ]
    }
  },
  {
    "name": "El Soberbio",
    "location": {
      "type": "Point",
      "coordinates": [
        -54.19877,
        -27.29847
      ]
    }
  },
  {
    "name": "Dolores",
    "location": {
      "type": "Point",
      "coordinates": [
        -57.67918,
        -36.31321
      ]
    }
  },
  {
    "name": "Curuzú Cuatiá",
    "location": {
      "type": "Point",
      "coordinates": [
        -58.0546,
        -29.79171
      ]
    }
  },
  {
    "name": "Corrientes",
    "location": {
      "type": "Point",
      "coordinates": [
        -58.8341,
        -27.4806
      ]
    }
  },
  {
    "name": "Concordia",
    "location": {
      "type": "Point",
      "coordinates": [
        -58.02089,
        -31.39296
      ]
    }
  },
  {
    "name": "Concepción del Uruguay",
    "location": {
      "type": "Point",
      "coordinates": [
        -58.23722,
        -32.48249
      ]
    }
  },
  {
    "name": "Colegiales",
    "location": {
      "type": "Point",
      "coordinates": [
        -58.44924,
        -34.57365
      ]
    }
  },
  {
    "name": "Chajarí",
    "location": {
      "type": "Point",
      "coordinates": [
        -57.97962,
        -30.75048
      ]
    }
  },
  {
    "name": "Campana",
    "location": {
      "type": "Point",
      "coordinates": [
        -58.95914,
        -34.16874
      ]
    }
  },
  {
    "name": "Buenos Aires",
    "location": {
      "type": "Point",
      "coordinates": [
        -58.37723,
        -34.61315
      ]
    }
  },
  {
    "name": "Barranqueras",
    "location": {
      "type": "Point",
      "coordinates": [
        -58.93925,
        -27.48132
      ]
    }
  },
  {
    "name": "Azul",
    "location": {
      "type": "Point",
      "coordinates": [
        -59.85854,
        -36.77698
      ]
    }
  },
  {
    "name": "Avellaneda",
    "location": {
      "type": "Point",
      "coordinates": [
        -59.65834,
        -29.11761
      ]
    }
  },
  {
    "name": "Aristóbulo del Valle",
    "location": {
      "type": "Point",
      "coordinates": [
        -54.89626,
        -27.09625
      ]
    }
  },
  {
    "name": "Zapala",
    "location": {
      "type": "Point",
      "coordinates": [
        -70.05442,
        -38.89916
      ]
    }
  },
  {
    "name": "Yerba Buena",
    "location": {
      "type": "Point",
      "coordinates": [
        -65.31667,
        -26.81667
      ]
    }
  },
  {
    "name": "Villa Regina",
    "location": {
      "type": "Point",
      "coordinates": [
        -67.06667,
        -39.1
      ]
    }
  },
  {
    "name": "Villa Paula de Sarmiento",
    "location": {
      "type": "Point",
      "coordinates": [
        -68.53838,
        -31.4933
      ]
    }
  },
  {
    "name": "Villa Nueva",
    "location": {
      "type": "Point",
      "coordinates": [
        -63.24763,
        -32.43293
      ]
    }
  },
  {
    "name": "Villa María",
    "location": {
      "type": "Point",
      "coordinates": [
        -63.24016,
        -32.40751
      ]
    }
  },
  {
    "name": "Villa Dolores",
    "location": {
      "type": "Point",
      "coordinates": [
        -65.18958,
        -31.94585
      ]
    }
  },
  {
    "name": "Villa Constitución",
    "location": {
      "type": "Point",
      "coordinates": [
        -60.3297,
        -33.22778
      ]
    }
  },
  {
    "name": "Villa Carlos Paz",
    "location": {
      "type": "Point",
      "coordinates": [
        -64.49778,
        -31.42414
      ]
    }
  },
  {
    "name": "Villa Ángela",
    "location": {
      "type": "Point",
      "coordinates": [
        -60.71526,
        -27.57383
      ]
    }
  },
  {
    "name": "Villa Allende",
    "location": {
      "type": "Point",
      "coordinates": [
        -64.29538,
        -31.29458
      ]
    }
  },
  {
    "name": "Viedma",
    "location": {
      "type": "Point",
      "coordinates": [
        -62.99668,
        -40.81345
      ]
    }
  },
  {
    "name": "Victoria",
    "location": {
      "type": "Point",
      "coordinates": [
        -60.15478,
        -32.61841
      ]
    }
  },
  {
    "name": "Vera",
    "location": {
      "type": "Point",
      "coordinates": [
        -60.21261,
        -29.4593
      ]
    }
  },
  {
    "name": "Venado Tuerto",
    "location": {
      "type": "Point",
      "coordinates": [
        -61.96885,
        -33.74556
      ]
    }
  },
  {
    "name": "Veinticinco de Mayo",
    "location": {
      "type": "Point",
      "coordinates": [
        -60.17271,
        -35.4323
      ]
    }
  },
  {
    "name": "Ushuaia",
    "location": {
      "type": "Point",
      "coordinates": [
        -68.3,
        -54.8
      ]
    }
  },
  {
    "name": "Unquillo",
    "location": {
      "type": "Point",
      "coordinates": [
        -64.31615,
        -31.23073
      ]
    }
  },
  {
    "name": "Tres Isletas",
    "location": {
      "type": "Point",
      "coordinates": [
        -60.43207,
        -26.34067
      ]
    }
  },
  {
    "name": "Tres Arroyos",
    "location": {
      "type": "Point",
      "coordinates": [
        -60.27978,
        -38.37394
      ]
    }
  },
  {
    "name": "Trelew",
    "location": {
      "type": "Point",
      "coordinates": [
        -65.30505,
        -43.24895
      ]
    }
  },
  {
    "name": "Termas de Río Hondo",
    "location": {
      "type": "Point",
      "coordinates": [
        -64.85972,
        -27.49362
      ]
    }
  },
  {
    "name": "Tartagal",
    "location": {
      "type": "Point",
      "coordinates": [
        -63.80131,
        -22.51637
      ]
    }
  },
  {
    "name": "Tafí Viejo",
    "location": {
      "type": "Point",
      "coordinates": [
        -65.25921,
        -26.73201
      ]
    }
  },
  {
    "name": "Sunchales",
    "location": {
      "type": "Point",
      "coordinates": [
        -61.56148,
        -30.94404
      ]
    }
  },
  {
    "name": "Santo Tomé",
    "location": {
      "type": "Point",
      "coordinates": [
        -60.7653,
        -31.66274
      ]
    }
  },
  {
    "name": "Santiago del Estero",
    "location": {
      "type": "Point",
      "coordinates": [
        -64.26149,
        -27.79511
      ]
    }
  },
  {
    "name": "Santa Rosa",
    "location": {
      "type": "Point",
      "coordinates": [
        -64.28333,
        -36.61667
      ]
    }
  },
  {
    "name": "Santa Lucía",
    "location": {
      "type": "Point",
      "coordinates": [
        -68.49503,
        -31.53987
      ]
    }
  },
  {
    "name": "Santa Fe de la Vera Cruz",
    "location": {
      "type": "Point",
      "coordinates": [
        -60.7,
        -31.63333
      ]
    }
  },
  {
    "name": "San Salvador de Jujuy",
    "location": {
      "type": "Point",
      "coordinates": [
        -65.29712,
        -24.19457
      ]
    }
  },
  {
    "name": "San Ramón de la Nueva Orán",
    "location": {
      "type": "Point",
      "coordinates": [
        -64.32426,
        -23.13705
      ]
    }
  },
  {
    "name": "San Rafael",
    "location": {
      "type": "Point",
      "coordinates": [
        -68.33007,
        -34.61772
      ]
    }
  },
  {
    "name": "San Pedro",
    "location": {
      "type": "Point",
      "coordinates": [
        -64.86614,
        -24.23127
      ]
    }
  },
  {
    "name": "San Nicolás de los Arroyos",
    "location": {
      "type": "Point",
      "coordinates": [
        -60.22523,
        -33.33578
      ]
    }
  },
  {
    "name": "San Miguel de Tucumán",
    "location": {
      "type": "Point",
      "coordinates": [
        -65.2226,
        -26.82414
      ]
    }
  },
  {
    "name": "San Martín de los Andes",
    "location": {
      "type": "Point",
      "coordinates": [
        -71.35337,
        -40.15789
      ]
    }
  },
  {
    "name": "San Martín",
    "location": {
      "type": "Point",
      "coordinates": [
        -68.46814,
        -33.08103
      ]
    }
  },
  {
    "name": "San Luis",
    "location": {
      "type": "Point",
      "coordinates": [
        -66.33563,
        -33.29501
      ]
    }
  },
  {
    "name": "San Justo",
    "location": {
      "type": "Point",
      "coordinates": [
        -60.59189,
        -30.78913
      ]
    }
  },
  {
    "name": "San Juan",
    "location": {
      "type": "Point",
      "coordinates": [
        -68.53639,
        -31.5375
      ]
    }
  },
  {
    "name": "San José de Jáchal",
    "location": {
      "type": "Point",
      "coordinates": [
        -68.74693,
        -30.24057
      ]
    }
  },
  {
    "name": "San Jorge",
    "location": {
      "type": "Point",
      "coordinates": [
        -61.85984,
        -31.89618
      ]
    }
  },
  {
    "name": "San Francisco",
    "location": {
      "type": "Point",
      "coordinates": [
        -62.08266,
        -31.42797
      ]
    }
  },
  {
    "name": "San Fernando del Valle de Catamarca",
    "location": {
      "type": "Point",
      "coordinates": [
        -65.78524,
        -28.46957
      ]
    }
  },
  {
    "name": "San Antonio Oeste",
    "location": {
      "type": "Point",
      "coordinates": [
        -64.94769,
        -40.73193
      ]
    }
  },
  {
    "name": "Salta",
    "location": {
      "type": "Point",
      "coordinates": [
        -65.41166,
        -24.7859
      ]
    }
  },
  {
    "name": "Rufino",
    "location": {
      "type": "Point",
      "coordinates": [
        -62.71262,
        -34.26827
      ]
    }
  },
  {
    "name": "Rosario",
    "location": {
      "type": "Point",
      "coordinates": [
        -60.63932,
        -32.94682
      ]
    }
  },
  {
    "name": "Río Tercero",
    "location": {
      "type": "Point",
      "coordinates": [
        -64.11405,
        -32.17301
      ]
    }
  },
  {
    "name": "Río Segundo",
    "location": {
      "type": "Point",
      "coordinates": [
        -63.9099,
        -31.6526
      ]
    }
  },
  {
    "name": "Río Gallegos",
    "location": {
      "type": "Point",
      "coordinates": [
        -69.21813,
        -51.62261
      ]
    }
  },
  {
    "name": "Río Cuarto",
    "location": {
      "type": "Point",
      "coordinates": [
        -64.34992,
        -33.13067
      ]
    }
  },
  {
    "name": "Río Ceballos",
    "location": {
      "type": "Point",
      "coordinates": [
        -64.32241,
        -31.16486
      ]
    }
  },
  {
    "name": "Rawson",
    "location": {
      "type": "Point",
      "coordinates": [
        -65.10228,
        -43.30016
      ]
    }
  },
  {
    "name": "Rafaela",
    "location": {
      "type": "Point",
      "coordinates": [
        -61.4867,
        -31.25033
      ]
    }
  },
  {
    "name": "Quitilipi",
    "location": {
      "type": "Point",
      "coordinates": [
        -60.21683,
        -26.86913
      ]
    }
  },
  {
    "name": "Punta Alta",
    "location": {
      "type": "Point",
      "coordinates": [
        -62.07359,
        -38.87588
      ]
    }
  },
  {
    "name": "Puerto Madryn",
    "location": {
      "type": "Point",
      "coordinates": [
        -65.03851,
        -42.7692
      ]
    }
  },
  {
    "name": "Presidencia Roque Sáenz Peña",
    "location": {
      "type": "Point",
      "coordinates": [
        -60.43876,
        -26.78522
      ]
    }
  },
  {
    "name": "Pocito",
    "location": {
      "type": "Point",
      "coordinates": [
        -68.58333,
        -31.68333
      ]
    }
  },
  {
    "name": "Plottier",
    "location": {
      "type": "Point",
      "coordinates": [
        -68.23333,
        -38.96667
      ]
    }
  },
  {
    "name": "Pergamino",
    "location": {
      "type": "Point",
      "coordinates": [
        -60.57357,
        -33.88995
      ]
    }
  },
  {
    "name": "Pérez",
    "location": {
      "type": "Point",
      "coordinates": [
        -60.76791,
        -32.99835
      ]
    }
  },
  {
    "name": "Paraná",
    "location": {
      "type": "Point",
      "coordinates": [
        -60.5238,
        -31.73197
      ]
    }
  },
  {
    "name": "Palpalá",
    "location": {
      "type": "Point",
      "coordinates": [
        -65.21163,
        -24.25647
      ]
    }
  },
  {
    "name": "Olavarría",
    "location": {
      "type": "Point",
      "coordinates": [
        -60.32254,
        -36.89272
      ]
    }
  },
  {
    "name": "Nueve de Julio",
    "location": {
      "type": "Point",
      "coordinates": [
        -60.88313,
        -35.44437
      ]
    }
  },
  {
    "name": "Neuquén",
    "location": {
      "type": "Point",
      "coordinates": [
        -68.0591,
        -38.95161
      ]
    }
  },
  {
    "name": "Morteros",
    "location": {
      "type": "Point",
      "coordinates": [
        -61.99862,
        -30.71164
      ]
    }
  },
  {
    "name": "Monteros",
    "location": {
      "type": "Point",
      "coordinates": [
        -65.49832,
        -27.16741
      ]
    }
  },
  {
    "name": "Mendoza",
    "location": {
      "type": "Point",
      "coordinates": [
        -68.82717,
        -32.89084
      ]
    }
  },
  {
    "name": "Marcos Juárez",
    "location": {
      "type": "Point",
      "coordinates": [
        -62.10672,
        -32.6978
      ]
    }
  },
  {
    "name": "Machagai",
    "location": {
      "type": "Point",
      "coordinates": [
        -60.04955,
        -26.92614
      ]
    }
  },
  {
    "name": "Lincoln",
    "location": {
      "type": "Point",
      "coordinates": [
        -61.5302,
        -34.86649
      ]
    }
  },
  {
    "name": "Libertador General San Martín",
    "location": {
      "type": "Point",
      "coordinates": [
        -64.78757,
        -23.80644
      ]
    }
  },
  {
    "name": "Las Breñas",
    "location": {
      "type": "Point",
      "coordinates": [
        -61.08161,
        -27.08966
      ]
    }
  },
  {
    "name": "La Rioja",
    "location": {
      "type": "Point",
      "coordinates": [
        -66.85067,
        -29.41105
      ]
    }
  },
  {
    "name": "La Falda",
    "location": {
      "type": "Point",
      "coordinates": [
        -64.48987,
        -31.08841
      ]
    }
  },
  {
    "name": "La Calera",
    "location": {
      "type": "Point",
      "coordinates": [
        -64.33529,
        -31.34377
      ]
    }
  },
  {
    "name": "Laboulaye",
    "location": {
      "type": "Point",
      "coordinates": [
        -63.39119,
        -34.12662
      ]
    }
  },
  {
    "name": "Junín",
    "location": {
      "type": "Point",
      "coordinates": [
        -60.94332,
        -34.58382
      ]
    }
  },
  {
    "name": "Joaquín V. González",
    "location": {
      "type": "Point",
      "coordinates": [
        -64.18333,
        -25.08333
      ]
    }
  },
  {
    "name": "Jesús María",
    "location": {
      "type": "Point",
      "coordinates": [
        -64.09424,
        -30.98153
      ]
    }
  },
  {
    "name": "Granadero Baigorria",
    "location": {
      "type": "Point",
      "coordinates": [
        -60.71754,
        -32.85683
      ]
    }
  },
  {
    "name": "Gobernador Gálvez",
    "location": {
      "type": "Point",
      "coordinates": [
        -60.64045,
        -33.03016
      ]
    }
  },
  {
    "name": "General Villegas",
    "location": {
      "type": "Point",
      "coordinates": [
        -63.01252,
        -35.03285
      ]
    }
  },
  {
    "name": "General Roca",
    "location": {
      "type": "Point",
      "coordinates": [
        -67.58333,
        -39.03333
      ]
    }
  },
  {
    "name": "General Pinedo",
    "location": {
      "type": "Point",
      "coordinates": [
        -61.28333,
        -27.31667
      ]
    }
  },
  {
    "name": "General Pico",
    "location": {
      "type": "Point",
      "coordinates": [
        -63.75682,
        -35.65662
      ]
    }
  },
  {
    "name": "General Enrique Mosconi",
    "location": {
      "type": "Point",
      "coordinates": [
        -63.81255,
        -22.59588
      ]
    }
  },
  {
    "name": "Gálvez",
    "location": {
      "type": "Point",
      "coordinates": [
        -61.22103,
        -32.02927
      ]
    }
  },
  {
    "name": "Firmat",
    "location": {
      "type": "Point",
      "coordinates": [
        -61.4832,
        -33.45937
      ]
    }
  },
  {
    "name": "Famaillá",
    "location": {
      "type": "Point",
      "coordinates": [
        -65.40329,
        -27.05413
      ]
    }
  },
  {
    "name": "Esquel",
    "location": {
      "type": "Point",
      "coordinates": [
        -71.31947,
        -42.91147
      ]
    }
  },
  {
    "name": "Esperanza",
    "location": {
      "type": "Point",
      "coordinates": [
        -60.93173,
        -31.4488
      ]
    }
  },
  {
    "name": "Embarcación",
    "location": {
      "type": "Point",
      "coordinates": [
        -64.09965,
        -23.21003
      ]
    }
  },
  {
    "name": "Embalse",
    "location": {
      "type": "Point",
      "coordinates": [
        -64.41809,
        -32.18
      ]
    }
  },
  {
    "name": "El Bolsón",
    "location": {
      "type": "Point",
      "coordinates": [
        -71.53336,
        -41.96051
      ]
    }
  },
  {
    "name": "Diamante",
    "location": {
      "type": "Point",
      "coordinates": [
        -60.63837,
        -32.06641
      ]
    }
  },
  {
    "name": "Deán Funes",
    "location": {
      "type": "Point",
      "coordinates": [
        -64.34984,
        -30.42036
      ]
    }
  },
  {
    "name": "Cutral-Có",
    "location": {
      "type": "Point",
      "coordinates": [
        -69.23052,
        -38.93424
      ]
    }
  },
  {
    "name": "Cruz del Eje",
    "location": {
      "type": "Point",
      "coordinates": [
        -64.80387,
        -30.72644
      ]
    }
  },
  {
    "name": "Crespo",
    "location": {
      "type": "Point",
      "coordinates": [
        -60.30658,
        -32.02873
      ]
    }
  },
  {
    "name": "Cosquín",
    "location": {
      "type": "Point",
      "coordinates": [
        -64.46563,
        -31.24508
      ]
    }
  },
  {
    "name": "Coronel Suárez",
    "location": {
      "type": "Point",
      "coordinates": [
        -61.93343,
        -37.45467
      ]
    }
  },
  {
    "name": "Coronda",
    "location": {
      "type": "Point",
      "coordinates": [
        -60.91983,
        -31.97263
      ]
    }
  },
  {
    "name": "Córdoba",
    "location": {
      "type": "Point",
      "coordinates": [
        -64.18105,
        -31.4135
      ]
    }
  },
  {
    "name": "Comodoro Rivadavia",
    "location": {
      "type": "Point",
      "coordinates": [
        -67.49656,
        -45.86413
      ]
    }
  },
  {
    "name": "Cipolletti",
    "location": {
      "type": "Point",
      "coordinates": [
        -67.99032,
        -38.93392
      ]
    }
  },
  {
    "name": "Cinco Saltos",
    "location": {
      "type": "Point",
      "coordinates": [
        -68.06293,
        -38.82225
      ]
    }
  },
  {
    "name": "Chivilcoy",
    "location": {
      "type": "Point",
      "coordinates": [
        -60.01667,
        -34.89566
      ]
    }
  },
  {
    "name": "Chimbas",
    "location": {
      "type": "Point",
      "coordinates": [
        -68.53333,
        -31.48333
      ]
    }
  },
  {
    "name": "Chilecito",
    "location": {
      "type": "Point",
      "coordinates": [
        -67.4974,
        -29.16195
      ]
    }
  },
  {
    "name": "Charata",
    "location": {
      "type": "Point",
      "coordinates": [
        -61.18795,
        -27.21438
      ]
    }
  },
  {
    "name": "Chacabuco",
    "location": {
      "type": "Point",
      "coordinates": [
        -60.47389,
        -34.64167
      ]
    }
  },
  {
    "name": "Centenario",
    "location": {
      "type": "Point",
      "coordinates": [
        -68.1318,
        -38.82955
      ]
    }
  },
  {
    "name": "Caucete",
    "location": {
      "type": "Point",
      "coordinates": [
        -68.28105,
        -31.65179
      ]
    }
  },
  {
    "name": "Catriel",
    "location": {
      "type": "Point",
      "coordinates": [
        -67.7956,
        -37.87907
      ]
    }
  },
  {
    "name": "Castelli",
    "location": {
      "type": "Point",
      "coordinates": [
        -60.61947,
        -25.94679
      ]
    }
  },
  {
    "name": "Casilda",
    "location": {
      "type": "Point",
      "coordinates": [
        -61.16806,
        -33.04417
      ]
    }
  },
  {
    "name": "Carcarañá",
    "location": {
      "type": "Point",
      "coordinates": [
        -61.15331,
        -32.85679
      ]
    }
  },
  {
    "name": "Capitán Bermúdez",
    "location": {
      "type": "Point",
      "coordinates": [
        -60.71852,
        -32.82262
      ]
    }
  },
  {
    "name": "Cañada de Gómez",
    "location": {
      "type": "Point",
      "coordinates": [
        -61.39493,
        -32.81636
      ]
    }
  },
  {
    "name": "Caleta Olivia",
    "location": {
      "type": "Point",
      "coordinates": [
        -67.52814,
        -46.43929
      ]
    }
  },
  {
    "name": "Bell Ville",
    "location": {
      "type": "Point",
      "coordinates": [
        -62.68873,
        -32.62591
      ]
    }
  },
  {
    "name": "Bella Vista",
    "location": {
      "type": "Point",
      "coordinates": [
        -65.30196,
        -27.03424
      ]
    }
  },
  {
    "name": "Bahía Blanca",
    "location": {
      "type": "Point",
      "coordinates": [
        -62.27243,
        -38.71959
      ]
    }
  },
  {
    "name": "Arroyo Seco",
    "location": {
      "type": "Point",
      "coordinates": [
        -60.50863,
        -33.15489
      ]
    }
  },
  {
    "name": "Arroyito",
    "location": {
      "type": "Point",
      "coordinates": [
        -63.05002,
        -31.42022
      ]
    }
  },
  {
    "name": "Añatuya",
    "location": {
      "type": "Point",
      "coordinates": [
        -62.83472,
        -28.46064
      ]
    }
  },
  {
    "name": "Alta Gracia",
    "location": {
      "type": "Point",
      "coordinates": [
        -64.42826,
        -31.65292
      ]
    }
  },
  {
    "name": "Allen",
    "location": {
      "type": "Point",
      "coordinates": [
        -67.82714,
        -38.97736
      ]
    }
  },
  {
    "name": "Alderetes",
    "location": {
      "type": "Point",
      "coordinates": [
        -65.13333,
        -26.81667
      ]
    }
  },
  {
    "name": "Albardón",
    "location": {
      "type": "Point",
      "coordinates": [
        -68.52556,
        -31.43722
      ]
    }
  },
  {
    "name": "Aguilares",
    "location": {
      "type": "Point",
      "coordinates": [
        -65.61427,
        -27.4338
      ]
    }
  },
  {
    "name": "Villa Santa Rita",
    "location": {
      "type": "Point",
      "coordinates": [
        -58.481,
        -34.61082
      ]
    }
  },
  {
    "name": "Villa Mercedes",
    "location": {
      "type": "Point",
      "coordinates": [
        -65.45783,
        -33.67571
      ]
    }
  },
  {
    "name": "San Carlos de Bariloche",
    "location": {
      "type": "Point",
      "coordinates": [
        -71.30822,
        -41.14557
      ]
    }
  },
  {
    "name": "Adrogué",
    "location": {
      "type": "Point",
      "coordinates": [
        -58.38384,
        -34.80041
      ]
    }
  },
  {
    "name": "Pago Pago",
    "location": {
      "type": "Point",
      "coordinates": [
        -170.7025,
        -14.27806
      ]
    }
  },
  {
    "name": "Wolfsberg",
    "location": {
      "type": "Point",
      "coordinates": [
        14.84417,
        46.84056
      ]
    }
  },
  {
    "name": "Wiener Neustadt",
    "location": {
      "type": "Point",
      "coordinates": [
        16.25,
        47.8
      ]
    }
  },
  {
    "name": "Vienna",
    "location": {
      "type": "Point",
      "coordinates": [
        16.37208,
        48.20849
      ]
    }
  },
  {
    "name": "Wels",
    "location": {
      "type": "Point",
      "coordinates": [
        14.03333,
        48.16667
      ]
    }
  },
  {
    "name": "Weinzierl bei Krems",
    "location": {
      "type": "Point",
      "coordinates": [
        15.6,
        48.4
      ]
    }
  },
  {
    "name": "Villach",
    "location": {
      "type": "Point",
      "coordinates": [
        13.85583,
        46.61028
      ]
    }
  },
  {
    "name": "Traun",
    "location": {
      "type": "Point",
      "coordinates": [
        14.23459,
        48.22656
      ]
    }
  },
  {
    "name": "Traiskirchen",
    "location": {
      "type": "Point",
      "coordinates": [
        16.29324,
        48.01485
      ]
    }
  },
  {
    "name": "Ternitz",
    "location": {
      "type": "Point",
      "coordinates": [
        16.03575,
        47.71565
      ]
    }
  },
  {
    "name": "Steyr",
    "location": {
      "type": "Point",
      "coordinates": [
        14.42127,
        48.04274
      ]
    }
  },
  {
    "name": "Spittal an der Drau",
    "location": {
      "type": "Point",
      "coordinates": [
        13.5,
        46.8
      ]
    }
  },
  {
    "name": "Schwechat",
    "location": {
      "type": "Point",
      "coordinates": [
        16.46667,
        48.13333
      ]
    }
  },
  {
    "name": "Sankt Pölten",
    "location": {
      "type": "Point",
      "coordinates": [
        15.63333,
        48.2
      ]
    }
  },
  {
    "name": "Salzburg",
    "location": {
      "type": "Point",
      "coordinates": [
        13.04399,
        47.79941
      ]
    }
  },
  {
    "name": "Saalfelden am Steinernen Meer",
    "location": {
      "type": "Point",
      "coordinates": [
        12.848,
        47.42681
      ]
    }
  },
  {
    "name": "Mödling",
    "location": {
      "type": "Point",
      "coordinates": [
        16.28921,
        48.08605
      ]
    }
  },
  {
    "name": "Lustenau",
    "location": {
      "type": "Point",
      "coordinates": [
        9.65851,
        47.42642
      ]
    }
  },
  {
    "name": "Linz",
    "location": {
      "type": "Point",
      "coordinates": [
        14.28611,
        48.30639
      ]
    }
  },
  {
    "name": "Leonding",
    "location": {
      "type": "Point",
      "coordinates": [
        14.2533,
        48.27965
      ]
    }
  },
  {
    "name": "Leoben",
    "location": {
      "type": "Point",
      "coordinates": [
        15.09144,
        47.3765
      ]
    }
  },
  {
    "name": "Kufstein",
    "location": {
      "type": "Point",
      "coordinates": [
        12.16667,
        47.58333
      ]
    }
  },
  {
    "name": "Krems an der Donau",
    "location": {
      "type": "Point",
      "coordinates": [
        15.61415,
        48.40921
      ]
    }
  },
  {
    "name": "Klosterneuburg",
    "location": {
      "type": "Point",
      "coordinates": [
        16.32522,
        48.30521
      ]
    }
  },
  {
    "name": "Klagenfurt am Wörthersee",
    "location": {
      "type": "Point",
      "coordinates": [
        14.30528,
        46.62472
      ]
    }
  },
  {
    "name": "Kapfenberg",
    "location": {
      "type": "Point",
      "coordinates": [
        15.29331,
        47.44458
      ]
    }
  },
  {
    "name": "Innsbruck",
    "location": {
      "type": "Point",
      "coordinates": [
        11.39454,
        47.26266
      ]
    }
  },
  {
    "name": "Hallein",
    "location": {
      "type": "Point",
      "coordinates": [
        13.1,
        47.68333
      ]
    }
  },
  {
    "name": "Graz",
    "location": {
      "type": "Point",
      "coordinates": [
        15.45,
        47.06667
      ]
    }
  },
  {
    "name": "Feldkirch",
    "location": {
      "type": "Point",
      "coordinates": [
        9.6,
        47.23306
      ]
    }
  },
  {
    "name": "Dornbirn",
    "location": {
      "type": "Point",
      "coordinates": [
        9.74195,
        47.41427
      ]
    }
  },
  {
    "name": "Bregenz",
    "location": {
      "type": "Point",
      "coordinates": [
        9.7471,
        47.50311
      ]
    }
  },
  {
    "name": "Braunau am Inn",
    "location": {
      "type": "Point",
      "coordinates": [
        13.04343,
        48.25628
      ]
    }
  },
  {
    "name": "Baden",
    "location": {
      "type": "Point",
      "coordinates": [
        16.23264,
        48.00543
      ]
    }
  },
  {
    "name": "Amstetten",
    "location": {
      "type": "Point",
      "coordinates": [
        14.87206,
        48.1229
      ]
    }
  },
  {
    "name": "Ansfelden",
    "location": {
      "type": "Point",
      "coordinates": [
        13.04944,
        47.965
      ]
    }
  },
  {
    "name": "Whyalla",
    "location": {
      "type": "Point",
      "coordinates": [
        137.56483,
        -33.03268
      ]
    }
  },
  {
    "name": "Rockingham",
    "location": {
      "type": "Point",
      "coordinates": [
        115.72978,
        -32.27682
      ]
    }
  },
  {
    "name": "Prospect",
    "location": {
      "type": "Point",
      "coordinates": [
        138.5933,
        -34.88241
      ]
    }
  },
  {
    "name": "Port Hedland",
    "location": {
      "type": "Point",
      "coordinates": [
        118.61059,
        -20.31215
      ]
    }
  },
  {
    "name": "Perth",
    "location": {
      "type": "Point",
      "coordinates": [
        115.8614,
        -31.95224
      ]
    }
  },
  {
    "name": "Murray Bridge",
    "location": {
      "type": "Point",
      "coordinates": [
        139.27345,
        -35.11986
      ]
    }
  },
  {
    "name": "Mount Isa",
    "location": {
      "type": "Point",
      "coordinates": [
        139.49727,
        -20.72523
      ]
    }
  },
  {
    "name": "Morphett Vale",
    "location": {
      "type": "Point",
      "coordinates": [
        138.51667,
        -35.13333
      ]
    }
  },
  {
    "name": "Mandurah",
    "location": {
      "type": "Point",
      "coordinates": [
        115.7217,
        -32.5269
      ]
    }
  },
  {
    "name": "Kwinana",
    "location": {
      "type": "Point",
      "coordinates": [
        115.78128,
        -32.23013
      ]
    }
  },
  {
    "name": "Kalgoorlie",
    "location": {
      "type": "Point",
      "coordinates": [
        121.4742,
        -30.74614
      ]
    }
  },
  {
    "name": "Gosnells",
    "location": {
      "type": "Point",
      "coordinates": [
        116.0054,
        -32.081
      ]
    }
  },
  {
    "name": "Geraldton",
    "location": {
      "type": "Point",
      "coordinates": [
        114.61459,
        -28.77897
      ]
    }
  },
  {
    "name": "Gawler",
    "location": {
      "type": "Point",
      "coordinates": [
        138.74902,
        -34.60251
      ]
    }
  },
  {
    "name": "Fremantle",
    "location": {
      "type": "Point",
      "coordinates": [
        115.75127,
        -32.05454
      ]
    }
  },
  {
    "name": "Darwin",
    "location": {
      "type": "Point",
      "coordinates": [
        130.84185,
        -12.46113
      ]
    }
  },
  {
    "name": "Busselton",
    "location": {
      "type": "Point",
      "coordinates": [
        115.3455,
        -33.65249
      ]
    }
  },
  {
    "name": "Bunbury",
    "location": {
      "type": "Point",
      "coordinates": [
        115.64137,
        -33.32711
      ]
    }
  },
  {
    "name": "Armadale",
    "location": {
      "type": "Point",
      "coordinates": [
        116.0093,
        -32.14607
      ]
    }
  },
  {
    "name": "Alice Springs",
    "location": {
      "type": "Point",
      "coordinates": [
        133.88362,
        -23.69748
      ]
    }
  },
  {
    "name": "Albany",
    "location": {
      "type": "Point",
      "coordinates": [
        117.86595,
        -35.0031
      ]
    }
  },
  {
    "name": "Adelaide",
    "location": {
      "type": "Point",
      "coordinates": [
        138.59863,
        -34.92866
      ]
    }
  },
  {
    "name": "Woodridge",
    "location": {
      "type": "Point",
      "coordinates": [
        153.1,
        -27.63333
      ]
    }
  },
  {
    "name": "Wodonga",
    "location": {
      "type": "Point",
      "coordinates": [
        146.88809,
        -36.12179
      ]
    }
  },
  {
    "name": "Werribee",
    "location": {
      "type": "Point",
      "coordinates": [
        144.66667,
        -37.9
      ]
    }
  },
  {
    "name": "Warrnambool",
    "location": {
      "type": "Point",
      "coordinates": [
        142.48799,
        -38.38176
      ]
    }
  },
  {
    "name": "Wantirna South",
    "location": {
      "type": "Point",
      "coordinates": [
        145.21667,
        -37.88333
      ]
    }
  },
  {
    "name": "Wangaratta",
    "location": {
      "type": "Point",
      "coordinates": [
        146.32056,
        -36.35846
      ]
    }
  },
  {
    "name": "Wagga Wagga",
    "location": {
      "type": "Point",
      "coordinates": [
        147.35375,
        -35.12577
      ]
    }
  },
  {
    "name": "Traralgon",
    "location": {
      "type": "Point",
      "coordinates": [
        146.5415,
        -38.19528
      ]
    }
  },
  {
    "name": "Townsville",
    "location": {
      "type": "Point",
      "coordinates": [
        146.80569,
        -19.26639
      ]
    }
  },
  {
    "name": "Toowoomba",
    "location": {
      "type": "Point",
      "coordinates": [
        151.95386,
        -27.56056
      ]
    }
  },
  {
    "name": "Thornbury",
    "location": {
      "type": "Point",
      "coordinates": [
        145,
        -37.75
      ]
    }
  },
  {
    "name": "Thomastown",
    "location": {
      "type": "Point",
      "coordinates": [
        145.01667,
        -37.68333
      ]
    }
  },
  {
    "name": "Tarneit",
    "location": {
      "type": "Point",
      "coordinates": [
        144.66667,
        -37.86667
      ]
    }
  },
  {
    "name": "Taree",
    "location": {
      "type": "Point",
      "coordinates": [
        152.45387,
        -31.91099
      ]
    }
  },
  {
    "name": "Tamworth",
    "location": {
      "type": "Point",
      "coordinates": [
        150.92905,
        -31.09048
      ]
    }
  },
  {
    "name": "Sydney",
    "location": {
      "type": "Point",
      "coordinates": [
        151.20732,
        -33.86785
      ]
    }
  },
  {
    "name": "Surfers Paradise",
    "location": {
      "type": "Point",
      "coordinates": [
        153.42999,
        -28.00274
      ]
    }
  },
  {
    "name": "Sunnybank",
    "location": {
      "type": "Point",
      "coordinates": [
        153.05,
        -27.58333
      ]
    }
  },
  {
    "name": "Sunbury",
    "location": {
      "type": "Point",
      "coordinates": [
        144.72607,
        -37.57742
      ]
    }
  },
  {
    "name": "Port Stephens",
    "location": {
      "type": "Point",
      "coordinates": [
        152.06623,
        -32.71314
      ]
    }
  },
  {
    "name": "Springvale",
    "location": {
      "type": "Point",
      "coordinates": [
        145.15274,
        -37.94853
      ]
    }
  },
  {
    "name": "Southport",
    "location": {
      "type": "Point",
      "coordinates": [
        153.39796,
        -27.96724
      ]
    }
  },
  {
    "name": "South Grafton",
    "location": {
      "type": "Point",
      "coordinates": [
        152.92627,
        -29.7076
      ]
    }
  },
  {
    "name": "Shepparton",
    "location": {
      "type": "Point",
      "coordinates": [
        145.39867,
        -36.38047
      ]
    }
  },
  {
    "name": "Seaford",
    "location": {
      "type": "Point",
      "coordinates": [
        145.13333,
        -38.1
      ]
    }
  },
  {
    "name": "Saint Kilda",
    "location": {
      "type": "Point",
      "coordinates": [
        144.98099,
        -37.8676
      ]
    }
  },
  {
    "name": "Saint Albans",
    "location": {
      "type": "Point",
      "coordinates": [
        144.8,
        -37.73333
      ]
    }
  },
  {
    "name": "Rowville",
    "location": {
      "type": "Point",
      "coordinates": [
        145.23333,
        -37.93333
      ]
    }
  },
  {
    "name": "Rockhampton",
    "location": {
      "type": "Point",
      "coordinates": [
        150.50595,
        -23.38032
      ]
    }
  },
  {
    "name": "Richmond",
    "location": {
      "type": "Point",
      "coordinates": [
        145.00176,
        -37.81819
      ]
    }
  },
  {
    "name": "Reservoir",
    "location": {
      "type": "Point",
      "coordinates": [
        145,
        -37.71667
      ]
    }
  },
  {
    "name": "Queanbeyan",
    "location": {
      "type": "Point",
      "coordinates": [
        149.232,
        -35.35493
      ]
    }
  },
  {
    "name": "Quakers Hill",
    "location": {
      "type": "Point",
      "coordinates": [
        150.88333,
        -33.73333
      ]
    }
  },
  {
    "name": "Preston",
    "location": {
      "type": "Point",
      "coordinates": [
        145.01667,
        -37.75
      ]
    }
  },
  {
    "name": "Port Macquarie",
    "location": {
      "type": "Point",
      "coordinates": [
        152.90894,
        -31.43084
      ]
    }
  },
  {
    "name": "Point Cook",
    "location": {
      "type": "Point",
      "coordinates": [
        144.75088,
        -37.91482
      ]
    }
  },
  {
    "name": "Pakenham South",
    "location": {
      "type": "Point",
      "coordinates": [
        145.51667,
        -38.13333
      ]
    }
  },
  {
    "name": "Orange",
    "location": {
      "type": "Point",
      "coordinates": [
        149.10018,
        -33.28397
      ]
    }
  },
  {
    "name": "Nowra",
    "location": {
      "type": "Point",
      "coordinates": [
        150.60036,
        -34.88422
      ]
    }
  },
  {
    "name": "Northcote",
    "location": {
      "type": "Point",
      "coordinates": [
        145,
        -37.76667
      ]
    }
  },
  {
    "name": "Noble Park",
    "location": {
      "type": "Point",
      "coordinates": [
        145.16667,
        -37.96667
      ]
    }
  },
  {
    "name": "Newcastle",
    "location": {
      "type": "Point",
      "coordinates": [
        151.77647,
        -32.92715
      ]
    }
  },
  {
    "name": "Nerang",
    "location": {
      "type": "Point",
      "coordinates": [
        153.33633,
        -27.98941
      ]
    }
  },
  {
    "name": "Narre Warren",
    "location": {
      "type": "Point",
      "coordinates": [
        145.3,
        -38.03333
      ]
    }
  },
  {
    "name": "Narangba",
    "location": {
      "type": "Point",
      "coordinates": [
        152.95923,
        -27.20338
      ]
    }
  },
  {
    "name": "Mulgrave",
    "location": {
      "type": "Point",
      "coordinates": [
        145.2,
        -37.91667
      ]
    }
  },
  {
    "name": "Mount Martha",
    "location": {
      "type": "Point",
      "coordinates": [
        145.01667,
        -38.26667
      ]
    }
  },
  {
    "name": "Mount Gambier",
    "location": {
      "type": "Point",
      "coordinates": [
        140.77919,
        -37.8318
      ]
    }
  },
  {
    "name": "Mount Eliza",
    "location": {
      "type": "Point",
      "coordinates": [
        145.08333,
        -38.18333
      ]
    }
  },
  {
    "name": "Mosman",
    "location": {
      "type": "Point",
      "coordinates": [
        151.23956,
        -33.83902
      ]
    }
  },
  {
    "name": "Mornington",
    "location": {
      "type": "Point",
      "coordinates": [
        145.03876,
        -38.21792
      ]
    }
  },
  {
    "name": "Morayfield",
    "location": {
      "type": "Point",
      "coordinates": [
        152.94907,
        -27.10876
      ]
    }
  },
  {
    "name": "Moe",
    "location": {
      "type": "Point",
      "coordinates": [
        146.26099,
        -38.17828
      ]
    }
  },
  {
    "name": "Mill Park",
    "location": {
      "type": "Point",
      "coordinates": [
        145.06667,
        -37.66667
      ]
    }
  },
  {
    "name": "Mildura",
    "location": {
      "type": "Point",
      "coordinates": [
        142.16251,
        -34.18551
      ]
    }
  },
  {
    "name": "Melton",
    "location": {
      "type": "Point",
      "coordinates": [
        144.58543,
        -37.68339
      ]
    }
  },
  {
    "name": "Melbourne",
    "location": {
      "type": "Point",
      "coordinates": [
        144.96332,
        -37.814
      ]
    }
  },
  {
    "name": "Maryborough",
    "location": {
      "type": "Point",
      "coordinates": [
        152.70493,
        -25.54073
      ]
    }
  },
  {
    "name": "Marrickville",
    "location": {
      "type": "Point",
      "coordinates": [
        151.15176,
        -33.90318
      ]
    }
  },
  {
    "name": "Maroubra",
    "location": {
      "type": "Point",
      "coordinates": [
        151.23333,
        -33.95
      ]
    }
  },
  {
    "name": "Maitland",
    "location": {
      "type": "Point",
      "coordinates": [
        151.5574,
        -32.73308
      ]
    }
  },
  {
    "name": "Mackay",
    "location": {
      "type": "Point",
      "coordinates": [
        149.16554,
        -21.15345
      ]
    }
  },
  {
    "name": "Liverpool",
    "location": {
      "type": "Point",
      "coordinates": [
        150.93333,
        -33.9
      ]
    }
  },
  {
    "name": "Lismore",
    "location": {
      "type": "Point",
      "coordinates": [
        153.2773,
        -28.81354
      ]
    }
  },
  {
    "name": "Lilydale",
    "location": {
      "type": "Point",
      "coordinates": [
        145.35,
        -37.75
      ]
    }
  },
  {
    "name": "Launceston",
    "location": {
      "type": "Point",
      "coordinates": [
        147.13467,
        -41.43876
      ]
    }
  },
  {
    "name": "Lara",
    "location": {
      "type": "Point",
      "coordinates": [
        144.40617,
        -38.02388
      ]
    }
  },
  {
    "name": "Langwarrin",
    "location": {
      "type": "Point",
      "coordinates": [
        145.16667,
        -38.16667
      ]
    }
  },
  {
    "name": "Lalor",
    "location": {
      "type": "Point",
      "coordinates": [
        145.01667,
        -37.66667
      ]
    }
  },
  {
    "name": "Keysborough",
    "location": {
      "type": "Point",
      "coordinates": [
        145.17385,
        -37.99116
      ]
    }
  },
  {
    "name": "Kew",
    "location": {
      "type": "Point",
      "coordinates": [
        145.03086,
        -37.80639
      ]
    }
  },
  {
    "name": "Katoomba",
    "location": {
      "type": "Point",
      "coordinates": [
        150.30739,
        -33.71977
      ]
    }
  },
  {
    "name": "Hornsby",
    "location": {
      "type": "Point",
      "coordinates": [
        151.09931,
        -33.70244
      ]
    }
  },
  {
    "name": "Hobart",
    "location": {
      "type": "Point",
      "coordinates": [
        147.32941,
        -42.87936
      ]
    }
  },
  {
    "name": "Hawthorn South",
    "location": {
      "type": "Point",
      "coordinates": [
        145.0367,
        -37.8329
      ]
    }
  },
  {
    "name": "Hampton Park",
    "location": {
      "type": "Point",
      "coordinates": [
        145.25,
        -38.03333
      ]
    }
  },
  {
    "name": "Griffith",
    "location": {
      "type": "Point",
      "coordinates": [
        146.05093,
        -34.28853
      ]
    }
  },
  {
    "name": "Greensborough",
    "location": {
      "type": "Point",
      "coordinates": [
        145.10302,
        -37.70462
      ]
    }
  },
  {
    "name": "Granville",
    "location": {
      "type": "Point",
      "coordinates": [
        151.01667,
        -33.83333
      ]
    }
  },
  {
    "name": "Goulburn",
    "location": {
      "type": "Point",
      "coordinates": [
        149.72086,
        -34.75155
      ]
    }
  },
  {
    "name": "Gold Coast",
    "location": {
      "type": "Point",
      "coordinates": [
        153.43088,
        -28.00029
      ]
    }
  },
  {
    "name": "Glenroy",
    "location": {
      "type": "Point",
      "coordinates": [
        144.93333,
        -37.7
      ]
    }
  },
  {
    "name": "Glenferrie",
    "location": {
      "type": "Point",
      "coordinates": [
        145.05,
        -37.83333
      ]
    }
  },
  {
    "name": "Gladstone",
    "location": {
      "type": "Point",
      "coordinates": [
        151.25775,
        -23.84852
      ]
    }
  },
  {
    "name": "Geelong",
    "location": {
      "type": "Point",
      "coordinates": [
        144.36069,
        -38.14711
      ]
    }
  },
  {
    "name": "Frankston East",
    "location": {
      "type": "Point",
      "coordinates": [
        145.13333,
        -38.13333
      ]
    }
  },
  {
    "name": "Frankston",
    "location": {
      "type": "Point",
      "coordinates": [
        145.12291,
        -38.14458
      ]
    }
  },
  {
    "name": "Forster",
    "location": {
      "type": "Point",
      "coordinates": [
        152.51715,
        -32.18136
      ]
    }
  },
  {
    "name": "Essendon",
    "location": {
      "type": "Point",
      "coordinates": [
        144.91667,
        -37.76667
      ]
    }
  },
  {
    "name": "Epping",
    "location": {
      "type": "Point",
      "coordinates": [
        145.03333,
        -37.65
      ]
    }
  },
  {
    "name": "Epping",
    "location": {
      "type": "Point",
      "coordinates": [
        151.08184,
        -33.77271
      ]
    }
  },
  {
    "name": "Engadine",
    "location": {
      "type": "Point",
      "coordinates": [
        151.01266,
        -34.06564
      ]
    }
  },
  {
    "name": "Eltham",
    "location": {
      "type": "Point",
      "coordinates": [
        145.15,
        -37.73333
      ]
    }
  },
  {
    "name": "Echuca",
    "location": {
      "type": "Point",
      "coordinates": [
        144.75185,
        -36.14057
      ]
    }
  },
  {
    "name": "Earlwood",
    "location": {
      "type": "Point",
      "coordinates": [
        151.1,
        -33.95
      ]
    }
  },
  {
    "name": "Dubbo",
    "location": {
      "type": "Point",
      "coordinates": [
        148.60484,
        -32.24295
      ]
    }
  },
  {
    "name": "Doncaster East",
    "location": {
      "type": "Point",
      "coordinates": [
        145.14888,
        -37.78761
      ]
    }
  },
  {
    "name": "Doncaster",
    "location": {
      "type": "Point",
      "coordinates": [
        145.12373,
        -37.78828
      ]
    }
  },
  {
    "name": "Devonport",
    "location": {
      "type": "Point",
      "coordinates": [
        146.35152,
        -41.17695
      ]
    }
  },
  {
    "name": "Deer Park",
    "location": {
      "type": "Point",
      "coordinates": [
        144.78333,
        -37.76667
      ]
    }
  },
  {
    "name": "Deception Bay",
    "location": {
      "type": "Point",
      "coordinates": [
        153.02631,
        -27.19354
      ]
    }
  },
  {
    "name": "Dandenong",
    "location": {
      "type": "Point",
      "coordinates": [
        145.2,
        -37.98333
      ]
    }
  },
  {
    "name": "Cronulla",
    "location": {
      "type": "Point",
      "coordinates": [
        151.14961,
        -34.06251
      ]
    }
  },
  {
    "name": "Cranbourne",
    "location": {
      "type": "Point",
      "coordinates": [
        145.28333,
        -38.1
      ]
    }
  },
  {
    "name": "Cranbourne",
    "location": {
      "type": "Point",
      "coordinates": [
        145.28326,
        -38.11342
      ]
    }
  },
  {
    "name": "Craigieburn",
    "location": {
      "type": "Point",
      "coordinates": [
        144.95,
        -37.6
      ]
    }
  },
  {
    "name": "Coffs Harbour",
    "location": {
      "type": "Point",
      "coordinates": [
        153.11351,
        -30.29626
      ]
    }
  },
  {
    "name": "Coburg",
    "location": {
      "type": "Point",
      "coordinates": [
        144.96667,
        -37.75
      ]
    }
  },
  {
    "name": "Clayton",
    "location": {
      "type": "Point",
      "coordinates": [
        145.11667,
        -37.91667
      ]
    }
  },
  {
    "name": "Wollongong",
    "location": {
      "type": "Point",
      "coordinates": [
        150.89345,
        -34.424
      ]
    }
  },
  {
    "name": "Cessnock",
    "location": {
      "type": "Point",
      "coordinates": [
        151.35623,
        -32.83211
      ]
    }
  },
  {
    "name": "Castle Hill",
    "location": {
      "type": "Point",
      "coordinates": [
        151,
        -33.73333
      ]
    }
  },
  {
    "name": "Carrum Downs",
    "location": {
      "type": "Point",
      "coordinates": [
        145.17248,
        -38.09968
      ]
    }
  },
  {
    "name": "Carnegie",
    "location": {
      "type": "Point",
      "coordinates": [
        145.06667,
        -37.88333
      ]
    }
  },
  {
    "name": "Carlingford",
    "location": {
      "type": "Point",
      "coordinates": [
        151.04888,
        -33.78269
      ]
    }
  },
  {
    "name": "Caringbah",
    "location": {
      "type": "Point",
      "coordinates": [
        151.12051,
        -34.04726
      ]
    }
  },
  {
    "name": "Canberra",
    "location": {
      "type": "Point",
      "coordinates": [
        149.12807,
        -35.28346
      ]
    }
  },
  {
    "name": "Camberwell",
    "location": {
      "type": "Point",
      "coordinates": [
        145.0694,
        -37.84205
      ]
    }
  },
  {
    "name": "Caloundra",
    "location": {
      "type": "Point",
      "coordinates": [
        153.12195,
        -26.80346
      ]
    }
  },
  {
    "name": "Cairns",
    "location": {
      "type": "Point",
      "coordinates": [
        145.76625,
        -16.92304
      ]
    }
  },
  {
    "name": "Caboolture",
    "location": {
      "type": "Point",
      "coordinates": [
        152.9511,
        -27.08465
      ]
    }
  },
  {
    "name": "Burnie",
    "location": {
      "type": "Point",
      "coordinates": [
        145.90375,
        -41.05584
      ]
    }
  },
  {
    "name": "Bundaberg",
    "location": {
      "type": "Point",
      "coordinates": [
        152.3479,
        -24.86621
      ]
    }
  },
  {
    "name": "Buderim",
    "location": {
      "type": "Point",
      "coordinates": [
        153.05705,
        -26.68443
      ]
    }
  },
  {
    "name": "Brunswick",
    "location": {
      "type": "Point",
      "coordinates": [
        144.96667,
        -37.76667
      ]
    }
  },
  {
    "name": "Broken Hill",
    "location": {
      "type": "Point",
      "coordinates": [
        141.4512,
        -31.9652
      ]
    }
  },
  {
    "name": "Brisbane",
    "location": {
      "type": "Point",
      "coordinates": [
        153.02809,
        -27.46794
      ]
    }
  },
  {
    "name": "Boronia",
    "location": {
      "type": "Point",
      "coordinates": [
        145.28333,
        -37.86667
      ]
    }
  },
  {
    "name": "Blacktown",
    "location": {
      "type": "Point",
      "coordinates": [
        150.91667,
        -33.76667
      ]
    }
  },
  {
    "name": "Berwick",
    "location": {
      "type": "Point",
      "coordinates": [
        145.35,
        -38.03333
      ]
    }
  },
  {
    "name": "Bendigo",
    "location": {
      "type": "Point",
      "coordinates": [
        144.28024,
        -36.75818
      ]
    }
  },
  {
    "name": "Baulkham Hills",
    "location": {
      "type": "Point",
      "coordinates": [
        150.99292,
        -33.75881
      ]
    }
  },
  {
    "name": "Bathurst",
    "location": {
      "type": "Point",
      "coordinates": [
        149.5806,
        -33.41665
      ]
    }
  },
  {
    "name": "Banora Point",
    "location": {
      "type": "Point",
      "coordinates": [
        153.53634,
        -28.21298
      ]
    }
  },
  {
    "name": "Bankstown",
    "location": {
      "type": "Point",
      "coordinates": [
        151.03333,
        -33.91667
      ]
    }
  },
  {
    "name": "Ballarat",
    "location": {
      "type": "Point",
      "coordinates": [
        143.84957,
        -37.56622
      ]
    }
  },
  {
    "name": "Auburn",
    "location": {
      "type": "Point",
      "coordinates": [
        151.03333,
        -33.85
      ]
    }
  },
  {
    "name": "Ashfield",
    "location": {
      "type": "Point",
      "coordinates": [
        151.12274,
        -33.88834
      ]
    }
  },
  {
    "name": "Armidale",
    "location": {
      "type": "Point",
      "coordinates": [
        151.67123,
        -30.50828
      ]
    }
  },
  {
    "name": "Albury",
    "location": {
      "type": "Point",
      "coordinates": [
        146.92401,
        -36.07482
      ]
    }
  },
  {
    "name": "South Brisbane",
    "location": {
      "type": "Point",
      "coordinates": [
        153.02049,
        -27.48034
      ]
    }
  },
  {
    "name": "Cheltenham",
    "location": {
      "type": "Point",
      "coordinates": [
        145.04806,
        -37.96944
      ]
    }
  },
  {
    "name": "Randwick",
    "location": {
      "type": "Point",
      "coordinates": [
        151.24895,
        -33.91439
      ]
    }
  },
  {
    "name": "Dee Why",
    "location": {
      "type": "Point",
      "coordinates": [
        151.3,
        -33.75
      ]
    }
  },
  {
    "name": "Umina",
    "location": {
      "type": "Point",
      "coordinates": [
        151.31325,
        -33.52314
      ]
    }
  },
  {
    "name": "Palmerston",
    "location": {
      "type": "Point",
      "coordinates": [
        130.9833,
        -12.48602
      ]
    }
  },
  {
    "name": "Bracken Ridge",
    "location": {
      "type": "Point",
      "coordinates": [
        153.03097,
        -27.3171
      ]
    }
  },
  {
    "name": "North Ryde",
    "location": {
      "type": "Point",
      "coordinates": [
        151.12436,
        -33.79677
      ]
    }
  },
  {
    "name": "Hoppers Crossing",
    "location": {
      "type": "Point",
      "coordinates": [
        144.7003,
        -37.88264
      ]
    }
  },
  {
    "name": "Logan City",
    "location": {
      "type": "Point",
      "coordinates": [
        153.10944,
        -27.63917
      ]
    }
  },
  {
    "name": "Carindale",
    "location": {
      "type": "Point",
      "coordinates": [
        153.10236,
        -27.50578
      ]
    }
  },
  {
    "name": "Paramatta",
    "location": {
      "type": "Point",
      "coordinates": [
        151.00348,
        -33.8178
      ]
    }
  },
  {
    "name": "Ferntree Gully",
    "location": {
      "type": "Point",
      "coordinates": [
        145.29539,
        -37.88461
      ]
    }
  },
  {
    "name": "City of Parramatta",
    "location": {
      "type": "Point",
      "coordinates": [
        151,
        -33.81667
      ]
    }
  },
  {
    "name": "Adelaide Hills",
    "location": {
      "type": "Point",
      "coordinates": [
        138.70735,
        -34.91119
      ]
    }
  },
  {
    "name": "Canning Vale",
    "location": {
      "type": "Point",
      "coordinates": [
        115.91814,
        -32.05799
      ]
    }
  },
  {
    "name": "Glenmore Park",
    "location": {
      "type": "Point",
      "coordinates": [
        150.6693,
        -33.79068
      ]
    }
  },
  {
    "name": "Glen Iris",
    "location": {
      "type": "Point",
      "coordinates": [
        145.05489,
        -37.85995
      ]
    }
  },
  {
    "name": "Balwyn North",
    "location": {
      "type": "Point",
      "coordinates": [
        145.09386,
        -37.79086
      ]
    }
  },
  {
    "name": "Malvern East",
    "location": {
      "type": "Point",
      "coordinates": [
        145.04253,
        -37.87397
      ]
    }
  },
  {
    "name": "Brighton East",
    "location": {
      "type": "Point",
      "coordinates": [
        145.01734,
        -37.90232
      ]
    }
  },
  {
    "name": "Booval",
    "location": {
      "type": "Point",
      "coordinates": [
        152.78944,
        -27.61328
      ]
    }
  },
  {
    "name": "St Albans",
    "location": {
      "type": "Point",
      "coordinates": [
        144.80049,
        -37.74496
      ]
    }
  },
  {
    "name": "Endeavour Hills",
    "location": {
      "type": "Point",
      "coordinates": [
        145.25866,
        -37.97695
      ]
    }
  },
  {
    "name": "Taylors Lakes",
    "location": {
      "type": "Point",
      "coordinates": [
        144.78631,
        -37.69863
      ]
    }
  },
  {
    "name": "Roxburgh Park",
    "location": {
      "type": "Point",
      "coordinates": [
        144.92555,
        -37.62581
      ]
    }
  },
  {
    "name": "Wyndham Vale",
    "location": {
      "type": "Point",
      "coordinates": [
        144.54101,
        -37.8415
      ]
    }
  },
  {
    "name": "Willetton",
    "location": {
      "type": "Point",
      "coordinates": [
        115.88782,
        -32.05251
      ]
    }
  },
  {
    "name": "Thornlie",
    "location": {
      "type": "Point",
      "coordinates": [
        115.955,
        -32.06003
      ]
    }
  },
  {
    "name": "Hillside",
    "location": {
      "type": "Point",
      "coordinates": [
        144.74172,
        -37.69047
      ]
    }
  },
  {
    "name": "Bundoora",
    "location": {
      "type": "Point",
      "coordinates": [
        145.05967,
        -37.69825
      ]
    }
  },
  {
    "name": "Forest Lake",
    "location": {
      "type": "Point",
      "coordinates": [
        152.96883,
        -27.62563
      ]
    }
  },
  {
    "name": "Sunnybank Hills",
    "location": {
      "type": "Point",
      "coordinates": [
        153.05388,
        -27.61025
      ]
    }
  },
  {
    "name": "Narre Warren South",
    "location": {
      "type": "Point",
      "coordinates": [
        145.2923,
        -38.04369
      ]
    }
  },
  {
    "name": "Dandenong North",
    "location": {
      "type": "Point",
      "coordinates": [
        145.2081,
        -37.96649
      ]
    }
  },
  {
    "name": "Frankston South",
    "location": {
      "type": "Point",
      "coordinates": [
        145.13643,
        -38.16604
      ]
    }
  },
  {
    "name": "Sunshine West",
    "location": {
      "type": "Point",
      "coordinates": [
        144.81637,
        -37.79117
      ]
    }
  },
  {
    "name": "Altona Meadows",
    "location": {
      "type": "Point",
      "coordinates": [
        144.78367,
        -37.88413
      ]
    }
  },
  {
    "name": "West Pennant",
    "location": {
      "type": "Point",
      "coordinates": [
        151.04764,
        -33.7457
      ]
    }
  },
  {
    "name": "Oranjestad",
    "location": {
      "type": "Point",
      "coordinates": [
        -70.02703,
        12.52398
      ]
    }
  },
  {
    "name": "Babijn",
    "location": {
      "type": "Point",
      "coordinates": [
        -69.98333,
        12.53333
      ]
    }
  },
  {
    "name": "Angochi",
    "location": {
      "type": "Point",
      "coordinates": [
        -69.95,
        12.51667
      ]
    }
  },
  {
    "name": "Mariehamn",
    "location": {
      "type": "Point",
      "coordinates": [
        19.93481,
        60.09726
      ]
    }
  },
  {
    "name": "Xankandi",
    "location": {
      "type": "Point",
      "coordinates": [
        46.7528,
        39.8177
      ]
    }
  },
  {
    "name": "Əhmədbəyli",
    "location": {
      "type": "Point",
      "coordinates": [
        48.39901,
        39.87867
      ]
    }
  },
  {
    "name": "Shushi",
    "location": {
      "type": "Point",
      "coordinates": [
        46.74989,
        39.76006
      ]
    }
  },
  {
    "name": "Salyan",
    "location": {
      "type": "Point",
      "coordinates": [
        48.98479,
        39.59621
      ]
    }
  },
  {
    "name": "Saatlı",
    "location": {
      "type": "Point",
      "coordinates": [
        48.36892,
        39.93214
      ]
    }
  },
  {
    "name": "Neftçala",
    "location": {
      "type": "Point",
      "coordinates": [
        49.247,
        39.3768
      ]
    }
  },
  {
    "name": "Nakhchivan",
    "location": {
      "type": "Point",
      "coordinates": [
        45.41222,
        39.20889
      ]
    }
  },
  {
    "name": "Lankaran",
    "location": {
      "type": "Point",
      "coordinates": [
        48.85062,
        38.75428
      ]
    }
  },
  {
    "name": "Imishli",
    "location": {
      "type": "Point",
      "coordinates": [
        48.05995,
        39.87095
      ]
    }
  },
  {
    "name": "Fizuli",
    "location": {
      "type": "Point",
      "coordinates": [
        47.14529,
        39.60094
      ]
    }
  },
  {
    "name": "Dzhalilabad",
    "location": {
      "type": "Point",
      "coordinates": [
        48.49186,
        39.20963
      ]
    }
  },
  {
    "name": "Pushkino",
    "location": {
      "type": "Point",
      "coordinates": [
        48.545,
        39.45833
      ]
    }
  },
  {
    "name": "Beylagan",
    "location": {
      "type": "Point",
      "coordinates": [
        47.61861,
        39.77556
      ]
    }
  },
  {
    "name": "Astara",
    "location": {
      "type": "Point",
      "coordinates": [
        48.87498,
        38.45598
      ]
    }
  },
  {
    "name": "Şirvan",
    "location": {
      "type": "Point",
      "coordinates": [
        48.929,
        39.93778
      ]
    }
  },
  {
    "name": "Ağdam",
    "location": {
      "type": "Point",
      "coordinates": [
        46.92736,
        39.99096
      ]
    }
  },
  {
    "name": "Zaqatala",
    "location": {
      "type": "Point",
      "coordinates": [
        46.64479,
        41.6316
      ]
    }
  },
  {
    "name": "Zabrat",
    "location": {
      "type": "Point",
      "coordinates": [
        49.94174,
        40.47746
      ]
    }
  },
  {
    "name": "Yevlakh",
    "location": {
      "type": "Point",
      "coordinates": [
        47.15014,
        40.61832
      ]
    }
  },
  {
    "name": "Yelenendorf",
    "location": {
      "type": "Point",
      "coordinates": [
        46.3189,
        40.58584
      ]
    }
  },
  {
    "name": "Xaçmaz",
    "location": {
      "type": "Point",
      "coordinates": [
        48.80565,
        41.46426
      ]
    }
  },
  {
    "name": "Ujar",
    "location": {
      "type": "Point",
      "coordinates": [
        47.65423,
        40.51902
      ]
    }
  },
  {
    "name": "Terter",
    "location": {
      "type": "Point",
      "coordinates": [
        46.93242,
        40.34179
      ]
    }
  },
  {
    "name": "Sumqayıt",
    "location": {
      "type": "Point",
      "coordinates": [
        49.66861,
        40.58972
      ]
    }
  },
  {
    "name": "Qaraçuxur",
    "location": {
      "type": "Point",
      "coordinates": [
        49.97361,
        40.39667
      ]
    }
  },
  {
    "name": "Shamkhor",
    "location": {
      "type": "Point",
      "coordinates": [
        46.0178,
        40.82975
      ]
    }
  },
  {
    "name": "Shamakhi",
    "location": {
      "type": "Point",
      "coordinates": [
        48.64137,
        40.63141
      ]
    }
  },
  {
    "name": "Sheki",
    "location": {
      "type": "Point",
      "coordinates": [
        47.17056,
        41.19194
      ]
    }
  },
  {
    "name": "Sabunçu",
    "location": {
      "type": "Point",
      "coordinates": [
        49.94806,
        40.4425
      ]
    }
  },
  {
    "name": "Sabirabad",
    "location": {
      "type": "Point",
      "coordinates": [
        48.47701,
        40.00869
      ]
    }
  },
  {
    "name": "Qusar",
    "location": {
      "type": "Point",
      "coordinates": [
        48.4302,
        41.4275
      ]
    }
  },
  {
    "name": "Quba",
    "location": {
      "type": "Point",
      "coordinates": [
        48.51341,
        41.36108
      ]
    }
  },
  {
    "name": "Hacıqabul",
    "location": {
      "type": "Point",
      "coordinates": [
        48.94286,
        40.03874
      ]
    }
  },
  {
    "name": "Qazax",
    "location": {
      "type": "Point",
      "coordinates": [
        45.36561,
        41.09246
      ]
    }
  },
  {
    "name": "Hacı Zeynalabdin",
    "location": {
      "type": "Point",
      "coordinates": [
        49.55861,
        40.62333
      ]
    }
  },
  {
    "name": "Mingelchaur",
    "location": {
      "type": "Point",
      "coordinates": [
        47.05953,
        40.76395
      ]
    }
  },
  {
    "name": "Maştağa",
    "location": {
      "type": "Point",
      "coordinates": [
        50.00616,
        40.52983
      ]
    }
  },
  {
    "name": "Mardakan",
    "location": {
      "type": "Point",
      "coordinates": [
        50.14292,
        40.49182
      ]
    }
  },
  {
    "name": "Lökbatan",
    "location": {
      "type": "Point",
      "coordinates": [
        49.73376,
        40.3256
      ]
    }
  },
  {
    "name": "Kyurdarmir",
    "location": {
      "type": "Point",
      "coordinates": [
        48.15085,
        40.34532
      ]
    }
  },
  {
    "name": "Khirdalan",
    "location": {
      "type": "Point",
      "coordinates": [
        49.75502,
        40.44808
      ]
    }
  },
  {
    "name": "Yeni Suraxanı",
    "location": {
      "type": "Point",
      "coordinates": [
        50.03598,
        40.43026
      ]
    }
  },
  {
    "name": "Geoktschai",
    "location": {
      "type": "Point",
      "coordinates": [
        47.74219,
        40.65055
      ]
    }
  },
  {
    "name": "Hövsan",
    "location": {
      "type": "Point",
      "coordinates": [
        50.08528,
        40.37444
      ]
    }
  },
  {
    "name": "Ganja",
    "location": {
      "type": "Point",
      "coordinates": [
        46.36056,
        40.68278
      ]
    }
  },
  {
    "name": "Divichibazar",
    "location": {
      "type": "Point",
      "coordinates": [
        48.98712,
        41.20117
      ]
    }
  },
  {
    "name": "Buzovna",
    "location": {
      "type": "Point",
      "coordinates": [
        50.11438,
        40.51903
      ]
    }
  },
  {
    "name": "Biny Selo",
    "location": {
      "type": "Point",
      "coordinates": [
        50.08686,
        40.45076
      ]
    }
  },
  {
    "name": "Barda",
    "location": {
      "type": "Point",
      "coordinates": [
        47.12619,
        40.37577
      ]
    }
  },
  {
    "name": "Bilajari",
    "location": {
      "type": "Point",
      "coordinates": [
        49.80566,
        40.4444
      ]
    }
  },
  {
    "name": "Baku",
    "location": {
      "type": "Point",
      "coordinates": [
        49.89201,
        40.37767
      ]
    }
  },
  {
    "name": "Amirdzhan",
    "location": {
      "type": "Point",
      "coordinates": [
        49.98361,
        40.42639
      ]
    }
  },
  {
    "name": "Aghsu",
    "location": {
      "type": "Point",
      "coordinates": [
        48.40087,
        40.57028
      ]
    }
  },
  {
    "name": "Ağdaş",
    "location": {
      "type": "Point",
      "coordinates": [
        47.4738,
        40.64699
      ]
    }
  },
  {
    "name": "Agdzhabedy",
    "location": {
      "type": "Point",
      "coordinates": [
        47.45937,
        40.05015
      ]
    }
  },
  {
    "name": "Bakıxanov",
    "location": {
      "type": "Point",
      "coordinates": [
        49.96693,
        40.41894
      ]
    }
  },
  {
    "name": "Zenica",
    "location": {
      "type": "Point",
      "coordinates": [
        17.90397,
        44.20169
      ]
    }
  },
  {
    "name": "Visoko",
    "location": {
      "type": "Point",
      "coordinates": [
        18.17806,
        43.98889
      ]
    }
  },
  {
    "name": "Velika Kladuša",
    "location": {
      "type": "Point",
      "coordinates": [
        15.80579,
        45.18497
      ]
    }
  },
  {
    "name": "Tuzla",
    "location": {
      "type": "Point",
      "coordinates": [
        18.66709,
        44.53842
      ]
    }
  },
  {
    "name": "Trebinje",
    "location": {
      "type": "Point",
      "coordinates": [
        18.34362,
        42.71197
      ]
    }
  },
  {
    "name": "Travnik",
    "location": {
      "type": "Point",
      "coordinates": [
        17.66583,
        44.22637
      ]
    }
  },
  {
    "name": "Sarajevo",
    "location": {
      "type": "Point",
      "coordinates": [
        18.35644,
        43.84864
      ]
    }
  },
  {
    "name": "Prijedor",
    "location": {
      "type": "Point",
      "coordinates": [
        16.71401,
        44.97991
      ]
    }
  },
  {
    "name": "Mostar",
    "location": {
      "type": "Point",
      "coordinates": [
        17.80806,
        43.34333
      ]
    }
  },
  {
    "name": "Gradačac",
    "location": {
      "type": "Point",
      "coordinates": [
        18.42764,
        44.87851
      ]
    }
  },
  {
    "name": "Gračanica",
    "location": {
      "type": "Point",
      "coordinates": [
        18.3101,
        44.70307
      ]
    }
  },
  {
    "name": "Goražde",
    "location": {
      "type": "Point",
      "coordinates": [
        18.97564,
        43.66795
      ]
    }
  },
  {
    "name": "Doboj",
    "location": {
      "type": "Point",
      "coordinates": [
        18.08698,
        44.73179
      ]
    }
  },
  {
    "name": "Cazin",
    "location": {
      "type": "Point",
      "coordinates": [
        15.94306,
        44.96694
      ]
    }
  },
  {
    "name": "Bugojno",
    "location": {
      "type": "Point",
      "coordinates": [
        17.45083,
        44.05722
      ]
    }
  },
  {
    "name": "Brčko",
    "location": {
      "type": "Point",
      "coordinates": [
        18.81012,
        44.86995
      ]
    }
  },
  {
    "name": "Bosanska Krupa",
    "location": {
      "type": "Point",
      "coordinates": [
        16.15139,
        44.8825
      ]
    }
  },
  {
    "name": "Bijeljina",
    "location": {
      "type": "Point",
      "coordinates": [
        19.21437,
        44.75874
      ]
    }
  },
  {
    "name": "Bihać",
    "location": {
      "type": "Point",
      "coordinates": [
        15.87083,
        44.81694
      ]
    }
  },
  {
    "name": "Banja Luka",
    "location": {
      "type": "Point",
      "coordinates": [
        17.19386,
        44.77842
      ]
    }
  },
  {
    "name": "Konjic",
    "location": {
      "type": "Point",
      "coordinates": [
        17.96082,
        43.65126
      ]
    }
  },
  {
    "name": "Bridgetown",
    "location": {
      "type": "Point",
      "coordinates": [
        -59.62021,
        13.10732
      ]
    }
  },
  {
    "name": "Thākurgaon",
    "location": {
      "type": "Point",
      "coordinates": [
        88.46989,
        26.03097
      ]
    }
  },
  {
    "name": "Teknāf",
    "location": {
      "type": "Point",
      "coordinates": [
        92.29773,
        20.85829
      ]
    }
  },
  {
    "name": "Tungi",
    "location": {
      "type": "Point",
      "coordinates": [
        90.40232,
        23.89154
      ]
    }
  },
  {
    "name": "Sylhet",
    "location": {
      "type": "Point",
      "coordinates": [
        91.87198,
        24.89904
      ]
    }
  },
  {
    "name": "Dohār",
    "location": {
      "type": "Point",
      "coordinates": [
        90.14251,
        23.59311
      ]
    }
  },
  {
    "name": "Jamālpur",
    "location": {
      "type": "Point",
      "coordinates": [
        89.94812,
        24.91965
      ]
    }
  },
  {
    "name": "Shibganj",
    "location": {
      "type": "Point",
      "coordinates": [
        88.15638,
        24.68501
      ]
    }
  },
  {
    "name": "Sātkhira",
    "location": {
      "type": "Point",
      "coordinates": [
        89.07185,
        22.70817
      ]
    }
  },
  {
    "name": "Sirajganj",
    "location": {
      "type": "Point",
      "coordinates": [
        89.70802,
        24.45771
      ]
    }
  },
  {
    "name": "Netrakona",
    "location": {
      "type": "Point",
      "coordinates": [
        90.72898,
        24.88352
      ]
    }
  },
  {
    "name": "Narsingdi",
    "location": {
      "type": "Point",
      "coordinates": [
        90.71768,
        23.92298
      ]
    }
  },
  {
    "name": "Sandwīp",
    "location": {
      "type": "Point",
      "coordinates": [
        91.45491,
        22.51409
      ]
    }
  },
  {
    "name": "Shāhzādpur",
    "location": {
      "type": "Point",
      "coordinates": [
        89.5988,
        24.17687
      ]
    }
  },
  {
    "name": "Rāmganj",
    "location": {
      "type": "Point",
      "coordinates": [
        90.84989,
        23.1006
      ]
    }
  },
  {
    "name": "Rājshāhi",
    "location": {
      "type": "Point",
      "coordinates": [
        88.60114,
        24.374
      ]
    }
  },
  {
    "name": "Pirojpur",
    "location": {
      "type": "Point",
      "coordinates": [
        89.97521,
        22.57965
      ]
    }
  },
  {
    "name": "Panchagarh",
    "location": {
      "type": "Point",
      "coordinates": [
        88.55777,
        26.33338
      ]
    }
  },
  {
    "name": "Patiya",
    "location": {
      "type": "Point",
      "coordinates": [
        91.979,
        22.29543
      ]
    }
  },
  {
    "name": "Parbatipur",
    "location": {
      "type": "Point",
      "coordinates": [
        88.93093,
        25.66369
      ]
    }
  },
  {
    "name": "Nārāyanganj",
    "location": {
      "type": "Point",
      "coordinates": [
        90.50298,
        23.61352
      ]
    }
  },
  {
    "name": "Nālchiti",
    "location": {
      "type": "Point",
      "coordinates": [
        90.27195,
        22.63696
      ]
    }
  },